{"type":"FeatureCollection","totalFeatures":3036,"features":[{"type":"Feature","id":"pm25.1","geometry":{"type":"Point","coordinates":[20.78017999900004,40.62592999900005]},"geometry_name":"the_geom","properties":{"OBJECTID_1":1,"OBJECTID":1,"EoICode":"AL0203A","StationNam":"Korca","Longitude":20.78018,"Latitude":40.62593,"Altitude":848,"StationTyp":"background","StationAre":"suburban","avg15":30.33897,"year":9,"stat_name":"","pm25_avg":0,"stat__name":""}},{"type":"Feature","id":"pm25.2","geometry":{"type":"Point","coordinates":[19.523420000000044,42.31389999900006]},"geometry_name":"the_geom","properties":{"OBJECTID_1":2,"OBJECTID":2,"EoICode":"AL0206A","StationNam":"Shkoder","Longitude":19.52342,"Latitude":42.3139,"Altitude":13,"StationTyp":"background","StationAre":"urban","avg15":13.236321,"year":9,"stat_name":"","pm25_avg":0,"stat__name":""}},{"type":"Feature","id":"pm25.3","geometry":{"type":"Point","coordinates":[16.52806000100003,47.84000000000003]},"geometry_name":"the_geom","properties":{"OBJECTID_1":3,"OBJECTID":3,"EoICode":"AT10001","StationNam":"Eisenstadt Laschoberstra?e","Longitude":16.52806,"Latitude":47.84,"Altitude":160,"StationTyp":"background","StationAre":"suburban","avg15":14.568675,"year":9,"stat_name":"","pm25_avg":0,"stat__name":""}},{"type":"Feature","id":"pm25.4","geometry":{"type":"Point","coordinates":[14.31806000000006,46.625559999000075]},"geometry_name":"the_geom","properties":{"OBJECTID_1":4,"OBJECTID":4,"EoICode":"AT2KA21","StationNam":"Klagenfurt V?lkermarkter Stra?e","Longitude":14.31806,"Latitude":46.62556,"Altitude":445,"StationTyp":"background","StationAre":"urban","avg15":16.919576,"year":9,"stat_name":"","pm25_avg":0,"stat__name":""}},{"type":"Feature","id":"pm25.5","geometry":{"type":"Point","coordinates":[14.299144444000035,46.626616666000075]},"geometry_name":"the_geom","properties":{"OBJECTID_1":5,"OBJECTID":5,"EoICode":"AT2KA71","StationNam":"Klagenfurt Sterneckstra?e","Longitude":14.299144,"Latitude":46.626617,"Altitude":445,"StationTyp":"background","StationAre":"urban","avg15":14.608504,"year":9,"stat_name":"","pm25_avg":0,"stat__name":""}},{"type":"Feature","id":"pm25.6","geometry":{"type":"Point","coordinates":[14.843611112000076,46.835000000000036]},"geometry_name":"the_geom","properties":{"OBJECTID_1":6,"OBJECTID":6,"EoICode":"AT2WO15","StationNam":"Wolfsberg Hauptschule","Longitude":14.843611,"Latitude":46.835,"Altitude":460,"StationTyp":"background","StationAre":"urban","avg15":19.190335,"year":9,"stat_name":"","pm25_avg":0,"stat__name":""}},{"type":"Feature","id":"pm25.7","geometry":{"type":"Point","coordinates":[16.33027777700005,48.083888889000036]},"geometry_name":"the_geom","properties":{"OBJECTID_1":7,"OBJECTID":7,"EoICode":"AT31413","StationNam":"Wiener Neudorf Hauptstra?e","Longitude":16.330278,"Latitude":48.083889,"Altitude":210,"StationTyp":"background","StationAre":"suburban","avg15":13.965723,"year":9,"stat_name":"","pm25_avg":0,"stat__name":""}},{"type":"Feature","id":"pm25.8","geometry":{"type":"Point","coordinates":[15.634167000000048,48.212499999000045]},"geometry_name":"the_geom","properties":{"OBJECTID_1":8,"OBJECTID":8,"EoICode":"AT32301","StationNam":"St. P?lten Eybnerstra?e","Longitude":15.634167,"Latitude":48.2125,"Altitude":270,"StationTyp":"background","StationAre":"urban","avg15":13.97845,"year":9,"stat_name":"","pm25_avg":0,"stat__name":""}},{"type":"Feature","id":"pm25.9","geometry":{"type":"Point","coordinates":[16.474444445000074,48.14499999900005]},"geometry_name":"the_geom","properties":{"OBJECTID_1":9,"OBJECTID":9,"EoICode":"AT32701","StationNam":"Schwechat Sportplatz, M¨¹hlgasse","Longitude":16.474444,"Latitude":48.145,"Altitude":155,"StationTyp":"background","StationAre":"suburban","avg15":16.251845,"year":9,"stat_name":"","pm25_avg":0,"stat__name":""}},{"type":"Feature","id":"pm25.10","geometry":{"type":"Point","coordinates":[13.632222222000053,47.71611111100003]},"geometry_name":"the_geom","properties":{"OBJECTID_1":10,"OBJECTID":10,"EoICode":"AT4S125","StationNam":"Bad Ischl, Rettenbachstra?e","Longitude":13.632222,"Latitude":47.716111,"Altitude":460,"StationTyp":"background","StationAre":"suburban","avg15":9.26586,"year":9,"stat_name":"","pm25_avg":0,"stat__name":""}},{"type":"Feature","id":"pm25.11","geometry":{"type":"Point","coordinates":[13.039722222000023,48.25777777700006]},"geometry_name":"the_geom","properties":{"OBJECTID_1":11,"OBJECTID":11,"EoICode":"AT4S156","StationNam":"Braunau Zentrum, Kolpingplatz","Longitude":13.039722,"Latitude":48.257778,"Altitude":350,"StationTyp":"background","StationAre":"urban","avg15":12.523505,"year":9,"stat_name":"","pm25_avg":0,"stat__name":""}},{"type":"Feature","id":"pm25.12","geometry":{"type":"Point","coordinates":[14.238888890000055,48.225277799000025]},"geometry_name":"the_geom","properties":{"OBJECTID_1":12,"OBJECTID":12,"EoICode":"AT4S404","StationNam":"Traun Tischlerstra?e","Longitude":14.238889,"Latitude":48.225278,"Altitude":274,"StationTyp":"background","StationAre":"suburban","avg15":15.235787,"year":9,"stat_name":"","pm25_avg":0,"stat__name":""}},{"type":"Feature","id":"pm25.13","geometry":{"type":"Point","coordinates":[13.667500000000075,48.00083333300006]},"geometry_name":"the_geom","properties":{"OBJECTID_1":13,"OBJECTID":13,"EoICode":"AT4S407","StationNam":"V?cklabruck, Untere Agergasse","Longitude":13.6675,"Latitude":48.000833,"Altitude":420,"StationTyp":"background","StationAre":"suburban","avg15":12.29686,"year":9,"stat_name":"","pm25_avg":0,"stat__name":""}},{"type":"Feature","id":"pm25.14","geometry":{"type":"Point","coordinates":[14.44277777700006,48.04944444400007]},"geometry_name":"the_geom","properties":{"OBJECTID_1":14,"OBJECTID":14,"EoICode":"AT4S409","StationNam":"Steyr M¨¹nichholz","Longitude":14.442778,"Latitude":48.049444,"Altitude":305,"StationTyp":"background","StationAre":"urban","avg15":11.781854,"year":9,"stat_name":"","pm25_avg":0,"stat__name":""}},{"type":"Feature","id":"pm25.15","geometry":{"type":"Point","coordinates":[15.15277777800003,47.044722222000075]},"geometry_name":"the_geom","properties":{"OBJECTID_1":15,"OBJECTID":15,"EoICode":"AT60107","StationNam":"Voitsberg M¨¹hlgasse","Longitude":15.152778,"Latitude":47.044722,"Altitude":390,"StationTyp":"background","StationAre":"urban","avg15":14.787564,"year":9,"stat_name":"","pm25_avg":0,"stat__name":""}},{"type":"Feature","id":"pm25.16","geometry":{"type":"Point","coordinates":[15.540555556000072,46.778333333000035]},"geometry_name":"the_geom","properties":{"OBJECTID_1":16,"OBJECTID":16,"EoICode":"AT60197","StationNam":"Leibnitz Lastenstra?e","Longitude":15.540556,"Latitude":46.778333,"Altitude":272,"StationTyp":"background","StationAre":"suburban","avg15":19.929107,"year":9,"stat_name":"","pm25_avg":0,"stat__name":""}},{"type":"Feature","id":"pm25.17","geometry":{"type":"Point","coordinates":[16.309750000000065,48.20500000000004]},"geometry_name":"the_geom","properties":{"OBJECTID_1":17,"OBJECTID":17,"EoICode":"AT9KEND","StationNam":"Kendlerstra?e","Longitude":16.30975,"Latitude":48.205,"Altitude":236,"StationTyp":"background","StationAre":"urban","avg15":14.100782,"year":9,"stat_name":"","pm25_avg":0,"stat__name":""}},{"type":"Feature","id":"pm25.18","geometry":{"type":"Point","coordinates":[16.458345000000065,48.22636083300006]},"geometry_name":"the_geom","properties":{"OBJECTID_1":18,"OBJECTID":18,"EoICode":"AT9STAD","StationNam":"Stadlau","Longitude":16.458345,"Latitude":48.226361,"Altitude":159,"StationTyp":"background","StationAre":"urban","avg15":14.567044,"year":9,"stat_name":"","pm25_avg":0,"stat__name":""}},{"type":"Feature","id":"pm25.19","geometry":{"type":"Point","coordinates":[3.2340661020000425,51.21346321600004]},"geometry_name":"the_geom","properties":{"OBJECTID_1":19,"OBJECTID":19,"EoICode":"BEGBB15","StationNam":"26BB15 - BRUGGE","Longitude":3.234066,"Latitude":51.213463,"Altitude":5,"StationTyp":"background","StationAre":"urban","avg15":12.944598,"year":9,"stat_name":"","pm25_avg":0,"stat__name":""}},{"type":"Feature","id":"pm25.20","geometry":{"type":"Point","coordinates":[3.7292981720000284,51.058331717000044]},"geometry_name":"the_geom","properties":{"OBJECTID_1":20,"OBJECTID":20,"EoICode":"BEGR701","StationNam":"26R701 - GENT","Longitude":3.729298,"Latitude":51.058332,"Altitude":5,"StationTyp":"background","StationAre":"urban","avg15":14.640805,"year":9,"stat_name":"","pm25_avg":0,"stat__name":""}},{"type":"Feature","id":"pm25.21","geometry":{"type":"Point","coordinates":[4.431821047000028,51.20966253100005]},"geometry_name":"the_geom","properties":{"OBJECTID_1":21,"OBJECTID":21,"EoICode":"BEGR801","StationNam":"26R801 - BORGERHOUT","Longitude":4.431821,"Latitude":51.209663,"Altitude":6,"StationTyp":"background","StationAre":"urban","avg15":14.81268,"year":9,"stat_name":"","pm25_avg":0,"stat__name":""}},{"type":"Feature","id":"pm25.22","geometry":{"type":"Point","coordinates":[4.491362028000026,51.252103412000054]},"geometry_name":"the_geom","properties":{"OBJECTID_1":22,"OBJECTID":22,"EoICode":"BEGR811","StationNam":"26R811 - SCHOTEN","Longitude":4.491362,"Latitude":51.252103,"Altitude":8,"StationTyp":"background","StationAre":"suburban","avg15":13.718232,"year":9,"stat_name":"","pm25_avg":0,"stat__name":""}},{"type":"Feature","id":"pm25.23","geometry":{"type":"Point","coordinates":[4.321820215000059,51.34072749200004]},"geometry_name":"the_geom","properties":{"OBJECTID_1":23,"OBJECTID":23,"EoICode":"BELAB02","StationNam":"40AB02 - BERENDRECHT","Longitude":4.32182,"Latitude":51.340727,"Altitude":10,"StationTyp":"background","StationAre":"suburban","avg15":13.09626,"year":9,"stat_name":"","pm25_avg":0,"stat__name":""}},{"type":"Feature","id":"pm25.24","geometry":{"type":"Point","coordinates":[4.385223685000028,51.23619420000006]},"geometry_name":"the_geom","properties":{"OBJECTID_1":24,"OBJECTID":24,"EoICode":"BELAL01","StationNam":"40AL01 - LINKEROEVER","Longitude":4.385224,"Latitude":51.236194,"Altitude":10,"StationTyp":"background","StationAre":"suburban","avg15":13.189466,"year":9,"stat_name":"","pm25_avg":0,"stat__name":""}},{"type":"Feature","id":"pm25.25","geometry":{"type":"Point","coordinates":[4.341005065000047,51.170298039000045]},"geometry_name":"the_geom","properties":{"OBJECTID_1":25,"OBJECTID":25,"EoICode":"BELHB23","StationNam":"40HB23 - HOBOKEN","Longitude":4.341005,"Latitude":51.170298,"Altitude":13,"StationTyp":"background","StationAre":"suburban","avg15":14.934121,"year":9,"stat_name":"","pm25_avg":0,"stat__name":""}},{"type":"Feature","id":"pm25.26","geometry":{"type":"Point","coordinates":[3.109641874000033,50.79346904500005]},"geometry_name":"the_geom","properties":{"OBJECTID_1":26,"OBJECTID":26,"EoICode":"BELMN01","StationNam":"40MN01 - MENEN","Longitude":3.109642,"Latitude":50.793469,"Altitude":10,"StationTyp":"background","StationAre":"suburban","avg15":13.435091,"year":9,"stat_name":"","pm25_avg":0,"stat__name":""}},{"type":"Feature","id":"pm25.27","geometry":{"type":"Point","coordinates":[3.121155599000076,50.95317728100008]},"geometry_name":"the_geom","properties":{"OBJECTID_1":27,"OBJECTID":27,"EoICode":"BELRL01","StationNam":"40RL01 - ROESELARE","Longitude":3.121156,"Latitude":50.953177,"Altitude":20,"StationTyp":"background","StationAre":"suburban","avg15":13.367502,"year":9,"stat_name":"","pm25_avg":0,"stat__name":""}},{"type":"Feature","id":"pm25.28","geometry":{"type":"Point","coordinates":[4.512184346000026,50.91302042400008]},"geometry_name":"the_geom","properties":{"OBJECTID_1":28,"OBJECTID":28,"EoICode":"BELSZ02","StationNam":"40SZ02 - STEENOKKERZ","Longitude":4.512184,"Latitude":50.91302,"Altitude":15,"StationTyp":"background","StationAre":"suburban","avg15":13.040427,"year":9,"stat_name":"","pm25_avg":0,"stat__name":""}},{"type":"Feature","id":"pm25.29","geometry":{"type":"Point","coordinates":[4.288336367000056,50.85803059400007]},"geometry_name":"the_geom","properties":{"OBJECTID_1":29,"OBJECTID":29,"EoICode":"BETB011","StationNam":"41B011 - BERCHEM S.A","Longitude":4.288336,"Latitude":50.858031,"Altitude":30,"StationTyp":"background","StationAre":"suburban","avg15":12.665909,"year":9,"stat_name":"","pm25_avg":0,"stat__name":""}},{"type":"Feature","id":"pm25.30","geometry":{"type":"Point","coordinates":[5.547464183000045,50.62499157000008]},"geometry_name":"the_geom","properties":{"OBJECTID_1":30,"OBJECTID":30,"EoICode":"BETH201","StationNam":"43H201 - LIEGE","Longitude":5.547464,"Latitude":50.624992,"Altitude":160,"StationTyp":"background","StationAre":"suburban","avg15":10.52111,"year":9,"stat_name":"","pm25_avg":0,"stat__name":""}},{"type":"Feature","id":"pm25.31","geometry":{"type":"Point","coordinates":[5.611149763000071,50.611922707000076]},"geometry_name":"the_geom","properties":{"OBJECTID_1":31,"OBJECTID":31,"EoICode":"BETM204","StationNam":"43M204 - ANGLEUR","Longitude":5.61115,"Latitude":50.611923,"Altitude":70,"StationTyp":"background","StationAre":"suburban","avg15":10.300577,"year":9,"stat_name":"","pm25_avg":0,"stat__name":""}},{"type":"Feature","id":"pm25.32","geometry":{"type":"Point","coordinates":[4.3927176980000695,50.89510056300003]},"geometry_name":"the_geom","properties":{"OBJECTID_1":32,"OBJECTID":32,"EoICode":"BETMEU1","StationNam":"41MEU1 - MEUDON","Longitude":4.392718,"Latitude":50.895101,"Altitude":50,"StationTyp":"background","StationAre":"suburban","avg15":15.115963,"year":9,"stat_name":"","pm25_avg":0,"stat__name":""}},{"type":"Feature","id":"pm25.33","geometry":{"type":"Point","coordinates":[4.837618016000022,50.97754137800007]},"geometry_name":"the_geom","properties":{"OBJECTID_1":33,"OBJECTID":33,"EoICode":"BETN035","StationNam":"42N035 - AARSCHOT","Longitude":4.837618,"Latitude":50.977541,"Altitude":55,"StationTyp":"background","StationAre":"suburban","avg15":13.434084,"year":9,"stat_name":"","pm25_avg":0,"stat__name":""}},{"type":"Feature","id":"pm25.34","geometry":{"type":"Point","coordinates":[5.368378532000065,50.93971186600004]},"geometry_name":"the_geom","properties":{"OBJECTID_1":34,"OBJECTID":34,"EoICode":"BETN045","StationNam":"42N045 - HASSELT","Longitude":5.368379,"Latitude":50.939712,"Altitude":41,"StationTyp":"background","StationAre":"suburban","avg15":13.466545,"year":9,"stat_name":"","pm25_avg":0,"stat__name":""}},{"type":"Feature","id":"pm25.35","geometry":{"type":"Point","coordinates":[3.322494319000043,50.81487387100003]},"geometry_name":"the_geom","properties":{"OBJECTID_1":35,"OBJECTID":35,"EoICode":"BETN052","StationNam":"44N052 - ZWEVEGEM","Longitude":3.322494,"Latitude":50.814874,"Altitude":27,"StationTyp":"background","StationAre":"suburban","avg15":14.683366,"year":9,"stat_name":"","pm25_avg":0,"stat__name":""}},{"type":"Feature","id":"pm25.36","geometry":{"type":"Point","coordinates":[3.939714325000068,50.46519215700005]},"geometry_name":"the_geom","properties":{"OBJECTID_1":36,"OBJECTID":36,"EoICode":"BETN070","StationNam":"43N070 - MONS","Longitude":3.939714,"Latitude":50.465192,"Altitude":30,"StationTyp":"background","StationAre":"suburban","avg15":12.551983,"year":9,"stat_name":"","pm25_avg":0,"stat__name":""}},{"type":"Feature","id":"pm25.37","geometry":{"type":"Point","coordinates":[4.333819708000021,50.849665489000074]},"geometry_name":"the_geom","properties":{"OBJECTID_1":37,"OBJECTID":37,"EoICode":"BETR001","StationNam":"41R001 - MOLENBEEK","Longitude":4.33382,"Latitude":50.849665,"Altitude":15,"StationTyp":"background","StationAre":"urban","avg15":14.705634,"year":9,"stat_name":"","pm25_avg":0,"stat__name":""}},{"type":"Feature","id":"pm25.38","geometry":{"type":"Point","coordinates":[4.358538856000052,50.796631638000065]},"geometry_name":"the_geom","properties":{"OBJECTID_1":38,"OBJECTID":38,"EoICode":"BETR012","StationNam":"41R012 - UCCLE","Longitude":4.358539,"Latitude":50.796632,"Altitude":100,"StationTyp":"background","StationAre":"suburban","avg15":14.419126,"year":9,"stat_name":"","pm25_avg":0,"stat__name":""}},{"type":"Feature","id":"pm25.39","geometry":{"type":"Point","coordinates":[4.436720764000029,50.941387115000055]},"geometry_name":"the_geom","properties":{"OBJECTID_1":39,"OBJECTID":39,"EoICode":"BETR020","StationNam":"42R020 - VILVOORDE","Longitude":4.436721,"Latitude":50.941387,"Altitude":12,"StationTyp":"background","StationAre":"suburban","avg15":14.460037,"year":9,"stat_name":"","pm25_avg":0,"stat__name":""}},{"type":"Feature","id":"pm25.40","geometry":{"type":"Point","coordinates":[5.6278352910000535,50.658444417000055]},"geometry_name":"the_geom","properties":{"OBJECTID_1":40,"OBJECTID":40,"EoICode":"BETR221","StationNam":"43R221 - LIEGE","Longitude":5.627835,"Latitude":50.658444,"Altitude":65,"StationTyp":"background","StationAre":"urban","avg15":11.341185,"year":9,"stat_name":"","pm25_avg":0,"stat__name":""}},{"type":"Feature","id":"pm25.41","geometry":{"type":"Point","coordinates":[5.570222814000033,50.613412502000074]},"geometry_name":"the_geom","properties":{"OBJECTID_1":41,"OBJECTID":41,"EoICode":"BETR222","StationNam":"43R222 - SERAING","Longitude":5.570223,"Latitude":50.613413,"Altitude":65,"StationTyp":"background","StationAre":"suburban","avg15":10.924992,"year":9,"stat_name":"","pm25_avg":0,"stat__name":""}},{"type":"Feature","id":"pm25.42","geometry":{"type":"Point","coordinates":[4.452171781000061,50.40931145300004]},"geometry_name":"the_geom","properties":{"OBJECTID_1":42,"OBJECTID":42,"EoICode":"BETR501","StationNam":"45R501 - CHARLEROI","Longitude":4.452172,"Latitude":50.409311,"Altitude":115,"StationTyp":"background","StationAre":"urban","avg15":12.842754,"year":9,"stat_name":"","pm25_avg":0,"stat__name":""}},{"type":"Feature","id":"pm25.43","geometry":{"type":"Point","coordinates":[4.458680859000026,50.42899539300004]},"geometry_name":"the_geom","properties":{"OBJECTID_1":43,"OBJECTID":43,"EoICode":"BETR502","StationNam":"45R502 - LODELINSART","Longitude":4.458681,"Latitude":50.428995,"Altitude":135,"StationTyp":"background","StationAre":"suburban","avg15":12.737044,"year":9,"stat_name":"","pm25_avg":0,"stat__name":""}},{"type":"Feature","id":"pm25.44","geometry":{"type":"Point","coordinates":[4.521130207000056,50.41643336000004]},"geometry_name":"the_geom","properties":{"OBJECTID_1":44,"OBJECTID":44,"EoICode":"BETR510","StationNam":"45R510 - CHATELINEAU","Longitude":4.52113,"Latitude":50.416433,"Altitude":118,"StationTyp":"background","StationAre":"suburban","avg15":12.025819,"year":9,"stat_name":"","pm25_avg":0,"stat__name":""}},{"type":"Feature","id":"pm25.45","geometry":{"type":"Point","coordinates":[4.424700451000035,50.37759210200005]},"geometry_name":"the_geom","properties":{"OBJECTID_1":45,"OBJECTID":45,"EoICode":"BETR511","StationNam":"45R511 - MARCINELLE","Longitude":4.4247,"Latitude":50.377592,"Altitude":157,"StationTyp":"background","StationAre":"suburban","avg15":11.799868,"year":9,"stat_name":"","pm25_avg":0,"stat__name":""}},{"type":"Feature","id":"pm25.46","geometry":{"type":"Point","coordinates":[3.7292981720000284,51.058331717000044]},"geometry_name":"the_geom","properties":{"OBJECTID_1":46,"OBJECTID":46,"EoICode":"BETR701","StationNam":"44R701 - GENT","Longitude":3.729298,"Latitude":51.058332,"Altitude":5,"StationTyp":"background","StationAre":"urban","avg15":14.327172,"year":9,"stat_name":"","pm25_avg":0,"stat__name":""}},{"type":"Feature","id":"pm25.47","geometry":{"type":"Point","coordinates":[3.775262390000023,51.061277698000026]},"geometry_name":"the_geom","properties":{"OBJECTID_1":47,"OBJECTID":47,"EoICode":"BETR710","StationNam":"44R710 - DESTELBERGE","Longitude":3.775262,"Latitude":51.061278,"Altitude":6,"StationTyp":"background","StationAre":"suburban","avg15":14.449595,"year":9,"stat_name":"","pm25_avg":0,"stat__name":""}},{"type":"Feature","id":"pm25.48","geometry":{"type":"Point","coordinates":[4.431821047000028,51.20966253100005]},"geometry_name":"the_geom","properties":{"OBJECTID_1":48,"OBJECTID":48,"EoICode":"BETR801","StationNam":"42R801 - BORGERHOUT","Longitude":4.431821,"Latitude":51.209663,"Altitude":6,"StationTyp":"background","StationAre":"urban","avg15":14.569196,"year":9,"stat_name":"","pm25_avg":0,"stat__name":""}},{"type":"Feature","id":"pm25.49","geometry":{"type":"Point","coordinates":[4.491362028000026,51.252103412000054]},"geometry_name":"the_geom","properties":{"OBJECTID_1":49,"OBJECTID":49,"EoICode":"BETR811","StationNam":"42R811 - SCHOTEN","Longitude":4.491362,"Latitude":51.252103,"Altitude":8,"StationTyp":"background","StationAre":"suburban","avg15":14.176761,"year":9,"stat_name":"","pm25_avg":0,"stat__name":""}},{"type":"Feature","id":"pm25.50","geometry":{"type":"Point","coordinates":[4.380103545000054,51.09200003800004]},"geometry_name":"the_geom","properties":{"OBJECTID_1":50,"OBJECTID":50,"EoICode":"BETR834","StationNam":"42R834 - Boom","Longitude":4.380104,"Latitude":51.092,"Altitude":0,"StationTyp":"background","StationAre":"suburban","avg15":13.806131,"year":9,"stat_name":"","pm25_avg":0,"stat__name":""}},{"type":"Feature","id":"pm25.51","geometry":{"type":"Point","coordinates":[33.01775793100006,34.68163250300006]},"geometry_name":"the_geom","properties":{"OBJECTID_1":51,"OBJECTID":51,"EoICode":"CY0005A","StationNam":"LIMASSOL RESIDENTIAL","Longitude":33.017758,"Latitude":34.681633,"Altitude":22,"StationTyp":"background","StationAre":"urban","avg15":17.802967,"year":9,"stat_name":"","pm25_avg":0,"stat__name":""}},{"type":"Feature","id":"pm25.52","geometry":{"type":"Point","coordinates":[33.33162929100007,35.126975327000025]},"geometry_name":"the_geom","properties":{"OBJECTID_1":52,"OBJECTID":52,"EoICode":"CY0006A","StationNam":"NICOSIA RESIDENTIAL","Longitude":33.331629,"Latitude":35.126975,"Altitude":208,"StationTyp":"background","StationAre":"urban","avg15":16.875843,"year":9,"stat_name":"","pm25_avg":0,"stat__name":""}},{"type":"Feature","id":"pm25.53","geometry":{"type":"Point","coordinates":[33.61585624700007,34.91363006000006]},"geometry_name":"the_geom","properties":{"OBJECTID_1":53,"OBJECTID":53,"EoICode":"CY0007A","StationNam":"LARNAKA RESIDENTIAL","Longitude":33.615856,"Latitude":34.91363,"Altitude":17,"StationTyp":"background","StationAre":"urban","avg15":20.32358,"year":9,"stat_name":"","pm25_avg":0,"stat__name":""}},{"type":"Feature","id":"pm25.54","geometry":{"type":"Point","coordinates":[32.43861406700006,34.779453499000056]},"geometry_name":"the_geom","properties":{"OBJECTID_1":54,"OBJECTID":54,"EoICode":"CY0008A","StationNam":"PAFOS RESIDENTIAL","Longitude":32.438614,"Latitude":34.779453,"Altitude":103,"StationTyp":"background","StationAre":"suburban","avg15":15.403012,"year":9,"stat_name":"","pm25_avg":0,"stat__name":""}},{"type":"Feature","id":"pm25.55","geometry":{"type":"Point","coordinates":[14.445933342000046,50.00730514500003]},"geometry_name":"the_geom","properties":{"OBJECTID_1":55,"OBJECTID":55,"EoICode":"CZ0ALIB","StationNam":"Praha 4-Libus","Longitude":14.445933,"Latitude":50.007305,"Altitude":301,"StationTyp":"background","StationAre":"suburban","avg15":15.720217,"year":9,"stat_name":"","pm25_avg":0,"stat__name":""}},{"type":"Feature","id":"pm25.56","geometry":{"type":"Point","coordinates":[14.44269180300006,50.08148193400007]},"geometry_name":"the_geom","properties":{"OBJECTID_1":56,"OBJECTID":56,"EoICode":"CZ0ARIE","StationNam":"Praha 2-Riegrovy sady","Longitude":14.442692,"Latitude":50.081482,"Altitude":256,"StationTyp":"background","StationAre":"urban","avg15":15.57881,"year":9,"stat_name":"","pm25_avg":0,"stat__name":""}},{"type":"Feature","id":"pm25.57","geometry":{"type":"Point","coordinates":[14.331413269000052,50.04613113400006]},"geometry_name":"the_geom","properties":{"OBJECTID_1":57,"OBJECTID":57,"EoICode":"CZ0ASTO","StationNam":"Praha 5-Stodulky","Longitude":14.331413,"Latitude":50.046131,"Altitude":309,"StationTyp":"background","StationAre":"urban","avg15":15.313738,"year":9,"stat_name":"","pm25_avg":0,"stat__name":""}},{"type":"Feature","id":"pm25.58","geometry":{"type":"Point","coordinates":[16.69621658400007,49.14897155800003]},"geometry_name":"the_geom","properties":{"OBJECTID_1":58,"OBJECTID":58,"EoICode":"CZ0BBNY","StationNam":"Brno-Turany","Longitude":16.696217,"Latitude":49.148972,"Altitude":241,"StationTyp":"background","StationAre":"suburban","avg15":17.68138,"year":9,"stat_name":"","pm25_avg":0,"stat__name":""}},{"type":"Feature","id":"pm25.59","geometry":{"type":"Point","coordinates":[16.06012725900007,48.84295654300007]},"geometry_name":"the_geom","properties":{"OBJECTID_1":59,"OBJECTID":59,"EoICode":"CZ0BZNO","StationNam":"Znojmo","Longitude":16.060127,"Latitude":48.842957,"Altitude":225,"StationTyp":"background","StationAre":"suburban","avg15":16.817191,"year":9,"stat_name":"","pm25_avg":0,"stat__name":""}},{"type":"Feature","id":"pm25.60","geometry":{"type":"Point","coordinates":[14.465683937000051,48.98438644400005]},"geometry_name":"the_geom","properties":{"OBJECTID_1":60,"OBJECTID":60,"EoICode":"CZ0CCBD","StationNam":"Ceske Budejovice","Longitude":14.465684,"Latitude":48.984386,"Altitude":383,"StationTyp":"background","StationAre":"urban","avg15":14.266245,"year":9,"stat_name":"","pm25_avg":0,"stat__name":""}},{"type":"Feature","id":"pm25.61","geometry":{"type":"Point","coordinates":[15.763548851000053,50.02403640700004]},"geometry_name":"the_geom","properties":{"OBJECTID_1":61,"OBJECTID":61,"EoICode":"CZ0EPAU","StationNam":"Pardubice Dukla","Longitude":15.763549,"Latitude":50.024036,"Altitude":239,"StationTyp":"background","StationAre":"urban","avg15":18.682784,"year":9,"stat_name":"","pm25_avg":0,"stat__name":""}},{"type":"Feature","id":"pm25.62","geometry":{"type":"Point","coordinates":[15.610245705000068,49.40159607000004]},"geometry_name":"the_geom","properties":{"OBJECTID_1":62,"OBJECTID":62,"EoICode":"CZ0JJIH","StationNam":"Jihlava","Longitude":15.610246,"Latitude":49.401596,"Altitude":502,"StationTyp":"background","StationAre":"urban","avg15":16.489249,"year":9,"stat_name":"","pm25_avg":0,"stat__name":""}},{"type":"Feature","id":"pm25.63","geometry":{"type":"Point","coordinates":[12.67281818400005,50.17282486000005]},"geometry_name":"the_geom","properties":{"OBJECTID_1":63,"OBJECTID":63,"EoICode":"CZ0KSOM","StationNam":"Sokolov","Longitude":12.672818,"Latitude":50.172825,"Altitude":476,"StationTyp":"background","StationAre":"suburban","avg15":13.479739,"year":9,"stat_name":"","pm25_avg":0,"stat__name":""}},{"type":"Feature","id":"pm25.64","geometry":{"type":"Point","coordinates":[17.238073349000047,49.60146331800007]},"geometry_name":"the_geom","properties":{"OBJECTID_1":64,"OBJECTID":64,"EoICode":"CZ0MOLJ","StationNam":"Olomouc-Hejcin","Longitude":17.238073,"Latitude":49.601463,"Altitude":224,"StationTyp":"background","StationAre":"urban","avg15":23.921083,"year":9,"stat_name":"","pm25_avg":0,"stat__name":""}},{"type":"Feature","id":"pm25.65","geometry":{"type":"Point","coordinates":[13.375539780000054,49.72839355500008]},"geometry_name":"the_geom","properties":{"OBJECTID_1":65,"OBJECTID":65,"EoICode":"CZ0PPLB","StationNam":"Plzen-Bory","Longitude":13.37554,"Latitude":49.728394,"Altitude":346,"StationTyp":"background","StationAre":"urban","avg15":18.435565,"year":9,"stat_name":"","pm25_avg":0,"stat__name":""}},{"type":"Feature","id":"pm25.66","geometry":{"type":"Point","coordinates":[13.368221282000036,49.77012634300007]},"geometry_name":"the_geom","properties":{"OBJECTID_1":66,"OBJECTID":66,"EoICode":"CZ0PPLL","StationNam":"Plzen-Lochotin","Longitude":13.368221,"Latitude":49.770126,"Altitude":360,"StationTyp":"background","StationAre":"urban","avg15":16.653832,"year":9,"stat_name":"","pm25_avg":0,"stat__name":""}},{"type":"Feature","id":"pm25.67","geometry":{"type":"Point","coordinates":[14.101783753000063,50.143859864000035]},"geometry_name":"the_geom","properties":{"OBJECTID_1":67,"OBJECTID":67,"EoICode":"CZ0SKLM","StationNam":"Kladno-stred mesta","Longitude":14.101784,"Latitude":50.14386,"Altitude":303,"StationTyp":"background","StationAre":"urban","avg15":12.296574,"year":9,"stat_name":"","pm25_avg":0,"stat__name":""}},{"type":"Feature","id":"pm25.68","geometry":{"type":"Point","coordinates":[14.913859367000043,50.42864608700006]},"geometry_name":"the_geom","properties":{"OBJECTID_1":68,"OBJECTID":68,"EoICode":"CZ0SMBO","StationNam":"Mlada Boleslav","Longitude":14.913859,"Latitude":50.428646,"Altitude":224,"StationTyp":"background","StationAre":"urban","avg15":17.270451,"year":9,"stat_name":"","pm25_avg":0,"stat__name":""}},{"type":"Feature","id":"pm25.69","geometry":{"type":"Point","coordinates":[18.24718093900003,49.79603958100006]},"geometry_name":"the_geom","properties":{"OBJECTID_1":69,"OBJECTID":69,"EoICode":"CZ0TOZR","StationNam":"Ostrava-Zabreh","Longitude":18.247181,"Latitude":49.79604,"Altitude":235,"StationTyp":"background","StationAre":"urban","avg15":25.380925,"year":9,"stat_name":"","pm25_avg":0,"stat__name":""}},{"type":"Feature","id":"pm25.70","geometry":{"type":"Point","coordinates":[18.677799225000058,49.66811370900007]},"geometry_name":"the_geom","properties":{"OBJECTID_1":70,"OBJECTID":70,"EoICode":"CZ0TTRO","StationNam":"Trinec-Kosmos","Longitude":18.677799,"Latitude":49.668114,"Altitude":320,"StationTyp":"background","StationAre":"urban","avg15":24.696366,"year":9,"stat_name":"","pm25_avg":0,"stat__name":""}},{"type":"Feature","id":"pm25.71","geometry":{"type":"Point","coordinates":[13.645272255000066,50.51036453200004]},"geometry_name":"the_geom","properties":{"OBJECTID_1":71,"OBJECTID":71,"EoICode":"CZ0UMOM","StationNam":"Most","Longitude":13.645272,"Latitude":50.510365,"Altitude":221,"StationTyp":"background","StationAre":"urban","avg15":18.666911,"year":9,"stat_name":"","pm25_avg":0,"stat__name":""}},{"type":"Feature","id":"pm25.72","geometry":{"type":"Point","coordinates":[13.851249695000035,50.645278930000075]},"geometry_name":"the_geom","properties":{"OBJECTID_1":72,"OBJECTID":72,"EoICode":"CZ0UTPM","StationNam":"Teplice","Longitude":13.85125,"Latitude":50.645279,"Altitude":257,"StationTyp":"background","StationAre":"urban","avg15":19.436881,"year":9,"stat_name":"","pm25_avg":0,"stat__name":""}},{"type":"Feature","id":"pm25.73","geometry":{"type":"Point","coordinates":[14.041194916000052,50.68352508500004]},"geometry_name":"the_geom","properties":{"OBJECTID_1":73,"OBJECTID":73,"EoICode":"CZ0UULK","StationNam":"Usti n.L.-Kockov","Longitude":14.041195,"Latitude":50.683525,"Altitude":367,"StationTyp":"background","StationAre":"suburban","avg15":15.357874,"year":9,"stat_name":"","pm25_avg":0,"stat__name":""}},{"type":"Feature","id":"pm25.74","geometry":{"type":"Point","coordinates":[17.66717529300007,49.232906342000035]},"geometry_name":"the_geom","properties":{"OBJECTID_1":74,"OBJECTID":74,"EoICode":"CZ0ZZLN","StationNam":"Zlin","Longitude":17.667175,"Latitude":49.232906,"Altitude":258,"StationTyp":"background","StationAre":"suburban","avg15":15.830083,"year":9,"stat_name":"","pm25_avg":0,"stat__name":""}},{"type":"Feature","id":"pm25.75","geometry":{"type":"Point","coordinates":[13.526796000000047,51.46273400000007]},"geometry_name":"the_geom","properties":{"OBJECTID_1":75,"OBJECTID":75,"EoICode":"DEBB007","StationNam":"Elsterwerda","Longitude":13.526796,"Latitude":51.462734,"Altitude":89,"StationTyp":"background","StationAre":"suburban","avg15":13.736274,"year":9,"stat_name":"","pm25_avg":0,"stat__name":""}},{"type":"Feature","id":"pm25.76","geometry":{"type":"Point","coordinates":[13.059945001000074,52.40135200000003]},"geometry_name":"the_geom","properties":{"OBJECTID_1":76,"OBJECTID":76,"EoICode":"DEBB021","StationNam":"Potsdam-Zentrum","Longitude":13.059945,"Latitude":52.401352,"Altitude":31,"StationTyp":"background","StationAre":"urban","avg15":13.695237,"year":9,"stat_name":"","pm25_avg":0,"stat__name":""}},{"type":"Feature","id":"pm25.77","geometry":{"type":"Point","coordinates":[12.552303000000052,52.42044200000004]},"geometry_name":"the_geom","properties":{"OBJECTID_1":77,"OBJECTID":77,"EoICode":"DEBB055","StationNam":"Brandenburg a.d. Havel","Longitude":12.552303,"Latitude":52.420442,"Altitude":33,"StationTyp":"background","StationAre":"suburban","avg15":13.316793,"year":9,"stat_name":"","pm25_avg":0,"stat__name":""}},{"type":"Feature","id":"pm25.78","geometry":{"type":"Point","coordinates":[11.738459999000042,52.99875000000003]},"geometry_name":"the_geom","properties":{"OBJECTID_1":78,"OBJECTID":78,"EoICode":"DEBB063","StationNam":"Wittenberge","Longitude":11.73846,"Latitude":52.99875,"Altitude":22,"StationTyp":"background","StationAre":"suburban","avg15":10.390088,"year":9,"stat_name":"","pm25_avg":0,"stat__name":""}},{"type":"Feature","id":"pm25.79","geometry":{"type":"Point","coordinates":[14.334549999000046,51.74634400000008]},"geometry_name":"the_geom","properties":{"OBJECTID_1":79,"OBJECTID":79,"EoICode":"DEBB064","StationNam":"Cottbus","Longitude":14.33455,"Latitude":51.746344,"Altitude":75,"StationTyp":"background","StationAre":"urban","avg15":13.485642,"year":9,"stat_name":"","pm25_avg":0,"stat__name":""}},{"type":"Feature","id":"pm25.80","geometry":{"type":"Point","coordinates":[12.88519400000007,52.60860900000006]},"geometry_name":"the_geom","properties":{"OBJECTID_1":80,"OBJECTID":80,"EoICode":"DEBB067","StationNam":"Nauen","Longitude":12.885194,"Latitude":52.608609,"Altitude":31,"StationTyp":"background","StationAre":"suburban","avg15":12.886066,"year":9,"stat_name":"","pm25_avg":0,"stat__name":""}},{"type":"Feature","id":"pm25.81","geometry":{"type":"Point","coordinates":[14.376400000000046,51.564500000000066]},"geometry_name":"the_geom","properties":{"OBJECTID_1":81,"OBJECTID":81,"EoICode":"DEBB083","StationNam":"Spremberg","Longitude":14.3764,"Latitude":51.5645,"Altitude":99,"StationTyp":"background","StationAre":"suburban","avg15":13.224965,"year":9,"stat_name":"","pm25_avg":0,"stat__name":""}},{"type":"Feature","id":"pm25.82","geometry":{"type":"Point","coordinates":[13.424304000000063,52.349703000000034]},"geometry_name":"the_geom","properties":{"OBJECTID_1":82,"OBJECTID":82,"EoICode":"DEBB086","StationNam":"Blankenfelde-Mahlow","Longitude":13.424304,"Latitude":52.349703,"Altitude":43,"StationTyp":"background","StationAre":"suburban","avg15":14.294797,"year":9,"stat_name":"","pm25_avg":0,"stat__name":""}},{"type":"Feature","id":"pm25.83","geometry":{"type":"Point","coordinates":[13.349326000000076,52.54304100000007]},"geometry_name":"the_geom","properties":{"OBJECTID_1":83,"OBJECTID":83,"EoICode":"DEBE010","StationNam":"B Wedding-Amrumer Str.","Longitude":13.349326,"Latitude":52.543041,"Altitude":35,"StationTyp":"background","StationAre":"urban","avg15":15.250826,"year":9,"stat_name":"","pm25_avg":0,"stat__name":""}},{"type":"Feature","id":"pm25.84","geometry":{"type":"Point","coordinates":[13.430844000000036,52.48945100000003]},"geometry_name":"the_geom","properties":{"OBJECTID_1":84,"OBJECTID":84,"EoICode":"DEBE034","StationNam":"B Neuk?lln-Nansenstra?e","Longitude":13.430844,"Latitude":52.489451,"Altitude":35,"StationTyp":"background","StationAre":"urban","avg15":17.119724,"year":9,"stat_name":"","pm25_avg":0,"stat__name":""}},{"type":"Feature","id":"pm25.85","geometry":{"type":"Point","coordinates":[13.418832999000074,52.51360600000004]},"geometry_name":"the_geom","properties":{"OBJECTID_1":85,"OBJECTID":85,"EoICode":"DEBE068","StationNam":"B Mitte, Br¨¹ckenstra?e","Longitude":13.418833,"Latitude":52.513606,"Altitude":35,"StationTyp":"background","StationAre":"urban","avg15":16.061823,"year":9,"stat_name":"","pm25_avg":0,"stat__name":""}},{"type":"Feature","id":"pm25.86","geometry":{"type":"Point","coordinates":[9.229745000000037,48.808800000000076]},"geometry_name":"the_geom","properties":{"OBJECTID_1":86,"OBJECTID":86,"EoICode":"DEBW013","StationNam":"Stuttgart Bad Cannstatt","Longitude":9.229745,"Latitude":48.8088,"Altitude":235,"StationTyp":"background","StationAre":"urban","avg15":12.379726,"year":9,"stat_name":"","pm25_avg":0,"stat__name":""}},{"type":"Feature","id":"pm25.87","geometry":{"type":"Point","coordinates":[9.224786000000051,49.165508000000045]},"geometry_name":"the_geom","properties":{"OBJECTID_1":87,"OBJECTID":87,"EoICode":"DEBW015","StationNam":"Heilbronn","Longitude":9.224786,"Latitude":49.165508,"Altitude":157,"StationTyp":"background","StationAre":"suburban","avg15":13.91155,"year":9,"stat_name":"","pm25_avg":0,"stat__name":""}},{"type":"Feature","id":"pm25.88","geometry":{"type":"Point","coordinates":[9.979031000000077,48.396836000000064]},"geometry_name":"the_geom","properties":{"OBJECTID_1":88,"OBJECTID":88,"EoICode":"DEBW019","StationNam":"Ulm","Longitude":9.979031,"Latitude":48.396836,"Altitude":481,"StationTyp":"background","StationAre":"urban","avg15":13.192736,"year":9,"stat_name":"","pm25_avg":0,"stat__name":""}},{"type":"Feature","id":"pm25.89","geometry":{"type":"Point","coordinates":[7.633271000000036,47.588152000000036]},"geometry_name":"the_geom","properties":{"OBJECTID_1":89,"OBJECTID":89,"EoICode":"DEBW023","StationNam":"Weil am Rhein","Longitude":7.633271,"Latitude":47.588152,"Altitude":275,"StationTyp":"background","StationAre":"suburban","avg15":12.319939,"year":9,"stat_name":"","pm25_avg":0,"stat__name":""}},{"type":"Feature","id":"pm25.90","geometry":{"type":"Point","coordinates":[8.665536000000031,48.889039000000025]},"geometry_name":"the_geom","properties":{"OBJECTID_1":90,"OBJECTID":90,"EoICode":"DEBW033","StationNam":"Pforzheim","Longitude":8.665536,"Latitude":48.889039,"Altitude":278,"StationTyp":"background","StationAre":"urban","avg15":11.823123,"year":9,"stat_name":"","pm25_avg":0,"stat__name":""}},{"type":"Feature","id":"pm25.91","geometry":{"type":"Point","coordinates":[9.169289000000049,47.66436100000004]},"geometry_name":"the_geom","properties":{"OBJECTID_1":91,"OBJECTID":91,"EoICode":"DEBW052","StationNam":"Konstanz","Longitude":9.169289,"Latitude":47.664361,"Altitude":403,"StationTyp":"background","StationAre":"urban","avg15":12.423116,"year":9,"stat_name":"","pm25_avg":0,"stat__name":""}},{"type":"Feature","id":"pm25.92","geometry":{"type":"Point","coordinates":[8.355628000000024,49.028594000000055]},"geometry_name":"the_geom","properties":{"OBJECTID_1":92,"OBJECTID":92,"EoICode":"DEBW081","StationNam":"Karlsruhe-Nordwest","Longitude":8.355628,"Latitude":49.028594,"Altitude":114,"StationTyp":"background","StationAre":"urban","avg15":11.994496,"year":9,"stat_name":"","pm25_avg":0,"stat__name":""}},{"type":"Feature","id":"pm25.93","geometry":{"type":"Point","coordinates":[7.832122000000027,48.00151100000005]},"geometry_name":"the_geom","properties":{"OBJECTID_1":93,"OBJECTID":93,"EoICode":"DEBW084","StationNam":"Freiburg","Longitude":7.832122,"Latitude":48.001511,"Altitude":262,"StationTyp":"background","StationAre":"urban","avg15":10.578466,"year":9,"stat_name":"","pm25_avg":0,"stat__name":""}},{"type":"Feature","id":"pm25.94","geometry":{"type":"Point","coordinates":[9.05117800000005,48.50770300000005]},"geometry_name":"the_geom","properties":{"OBJECTID_1":94,"OBJECTID":94,"EoICode":"DEBW107","StationNam":"T¨¹bingen","Longitude":9.051178,"Latitude":48.507703,"Altitude":325,"StationTyp":"background","StationAre":"suburban","avg15":12.087066,"year":9,"stat_name":"","pm25_avg":0,"stat__name":""}},{"type":"Feature","id":"pm25.95","geometry":{"type":"Point","coordinates":[12.188650000000052,50.05819500000007]},"geometry_name":"the_geom","properties":{"OBJECTID_1":95,"OBJECTID":95,"EoICode":"DEBY002","StationNam":"Arzberg/Egerstra?e","Longitude":12.18865,"Latitude":50.058195,"Altitude":480,"StationTyp":"background","StationAre":"suburban","avg15":13.370539,"year":9,"stat_name":"","pm25_avg":0,"stat__name":""}},{"type":"Feature","id":"pm25.96","geometry":{"type":"Point","coordinates":[9.117973000000063,49.99151800000004]},"geometry_name":"the_geom","properties":{"OBJECTID_1":96,"OBJECTID":96,"EoICode":"DEBY005","StationNam":"Aschaffenburg/Bussardweg","Longitude":9.117973,"Latitude":49.991518,"Altitude":134,"StationTyp":"background","StationAre":"suburban","avg15":12.226837,"year":9,"stat_name":"","pm25_avg":0,"stat__name":""}},{"type":"Feature","id":"pm25.97","geometry":{"type":"Point","coordinates":[10.888369999000076,48.37657600000006]},"geometry_name":"the_geom","properties":{"OBJECTID_1":97,"OBJECTID":97,"EoICode":"DEBY007","StationNam":"Augsburg/Bourges-Platz","Longitude":10.88837,"Latitude":48.376576,"Altitude":477,"StationTyp":"background","StationAre":"urban","avg15":13.376674,"year":9,"stat_name":"","pm25_avg":0,"stat__name":""}},{"type":"Feature","id":"pm25.98","geometry":{"type":"Point","coordinates":[10.88768600000003,49.898330000000044]},"geometry_name":"the_geom","properties":{"OBJECTID_1":98,"OBJECTID":98,"EoICode":"DEBY009","StationNam":"Bamberg/L?wenbr¨¹cke","Longitude":10.887686,"Latitude":49.89833,"Altitude":231,"StationTyp":"background","StationAre":"urban","avg15":13.076938,"year":9,"stat_name":"","pm25_avg":0,"stat__name":""}},{"type":"Feature","id":"pm25.99","geometry":{"type":"Point","coordinates":[12.829314000000068,48.177175000000034]},"geometry_name":"the_geom","properties":{"OBJECTID_1":99,"OBJECTID":99,"EoICode":"DEBY012","StationNam":"Burghausen/Marktler Stra?e","Longitude":12.829314,"Latitude":48.177175,"Altitude":420,"StationTyp":"background","StationAre":"suburban","avg15":13.667626,"year":9,"stat_name":"","pm25_avg":0,"stat__name":""}},{"type":"Feature","id":"pm25.100","geometry":{"type":"Point","coordinates":[10.306561000000045,47.72514000000007]},"geometry_name":"the_geom","properties":{"OBJECTID_1":100,"OBJECTID":100,"EoICode":"DEBY031","StationNam":"Kempten (Allg?u)/Westendstra?e","Longitude":10.306561,"Latitude":47.72514,"Altitude":678,"StationTyp":"background","StationAre":"suburban","avg15":10.870899,"year":9,"stat_name":"","pm25_avg":0,"stat__name":""}},{"type":"Feature","id":"pm25.101","geometry":{"type":"Point","coordinates":[11.554669000000047,48.15453400000007]},"geometry_name":"the_geom","properties":{"OBJECTID_1":101,"OBJECTID":101,"EoICode":"DEBY039","StationNam":"M¨¹nchen/Lothstra?e","Longitude":11.554669,"Latitude":48.154534,"Altitude":521,"StationTyp":"background","StationAre":"urban","avg15":12.392775,"year":9,"stat_name":"","pm25_avg":0,"stat__name":""}},{"type":"Feature","id":"pm25.102","geometry":{"type":"Point","coordinates":[10.008293000000037,48.397079000000076]},"geometry_name":"the_geom","properties":{"OBJECTID_1":102,"OBJECTID":102,"EoICode":"DEBY052","StationNam":"Neu-Ulm/Gabelsbergerstra?e","Longitude":10.008293,"Latitude":48.397079,"Altitude":470,"StationTyp":"background","StationAre":"urban","avg15":13.687462,"year":9,"stat_name":"","pm25_avg":0,"stat__name":""}},{"type":"Feature","id":"pm25.103","geometry":{"type":"Point","coordinates":[11.024800000000027,49.462229000000036]},"geometry_name":"the_geom","properties":{"OBJECTID_1":103,"OBJECTID":103,"EoICode":"DEBY058","StationNam":"N¨¹rnberg/Muggenhof","Longitude":11.0248,"Latitude":49.462229,"Altitude":300,"StationTyp":"background","StationAre":"urban","avg15":13.515509,"year":9,"stat_name":"","pm25_avg":0,"stat__name":""}},{"type":"Feature","id":"pm25.104","geometry":{"type":"Point","coordinates":[12.128139001000022,49.32195500000006]},"geometry_name":"the_geom","properties":{"OBJECTID_1":104,"OBJECTID":104,"EoICode":"DEBY067","StationNam":"Schwandorf/Wackersdorfer Stra?e","Longitude":12.128139,"Latitude":49.321955,"Altitude":380,"StationTyp":"background","StationAre":"suburban","avg15":13.536733,"year":9,"stat_name":"","pm25_avg":0,"stat__name":""}},{"type":"Feature","id":"pm25.105","geometry":{"type":"Point","coordinates":[12.159360999000057,49.67895000000004]},"geometry_name":"the_geom","properties":{"OBJECTID_1":105,"OBJECTID":105,"EoICode":"DEBY075","StationNam":"Weiden i.d.OPf./Nikolaistra?e","Longitude":12.159361,"Latitude":49.67895,"Altitude":400,"StationTyp":"background","StationAre":"urban","avg15":13.427596,"year":9,"stat_name":"","pm25_avg":0,"stat__name":""}},{"type":"Feature","id":"pm25.106","geometry":{"type":"Point","coordinates":[9.956419999000047,49.80469500000004]},"geometry_name":"the_geom","properties":{"OBJECTID_1":106,"OBJECTID":106,"EoICode":"DEBY077","StationNam":"W¨¹rzburg/Kopfklinik","Longitude":9.95642,"Latitude":49.804695,"Altitude":226,"StationTyp":"background","StationAre":"suburban","avg15":11.990753,"year":9,"stat_name":"","pm25_avg":0,"stat__name":""}},{"type":"Feature","id":"pm25.107","geometry":{"type":"Point","coordinates":[12.538174000000026,48.02165700000006]},"geometry_name":"the_geom","properties":{"OBJECTID_1":107,"OBJECTID":107,"EoICode":"DEBY088","StationNam":"Trostberg/Schwimmbadstra?e","Longitude":12.538174,"Latitude":48.021657,"Altitude":488,"StationTyp":"background","StationAre":"suburban","avg15":12.232226,"year":9,"stat_name":"","pm25_avg":0,"stat__name":""}},{"type":"Feature","id":"pm25.108","geometry":{"type":"Point","coordinates":[11.648036000000047,48.17319400000008]},"geometry_name":"the_geom","properties":{"OBJECTID_1":108,"OBJECTID":108,"EoICode":"DEBY089","StationNam":"M¨¹nchen/Johanneskirchen","Longitude":11.648036,"Latitude":48.173194,"Altitude":513,"StationTyp":"background","StationAre":"suburban","avg15":11.973409,"year":9,"stat_name":"","pm25_avg":0,"stat__name":""}},{"type":"Feature","id":"pm25.109","geometry":{"type":"Point","coordinates":[10.903051000000062,48.326013000000046]},"geometry_name":"the_geom","properties":{"OBJECTID_1":109,"OBJECTID":109,"EoICode":"DEBY099","StationNam":"Augsburg/LfU","Longitude":10.903051,"Latitude":48.326013,"Altitude":495,"StationTyp":"background","StationAre":"suburban","avg15":12.609537,"year":9,"stat_name":"","pm25_avg":0,"stat__name":""}},{"type":"Feature","id":"pm25.110","geometry":{"type":"Point","coordinates":[13.42203900000004,48.57362900000004]},"geometry_name":"the_geom","properties":{"OBJECTID_1":110,"OBJECTID":110,"EoICode":"DEBY118","StationNam":"Passau/Stelzhamerstra?e","Longitude":13.422039,"Latitude":48.573629,"Altitude":300,"StationTyp":"background","StationAre":"urban","avg15":15.24653,"year":9,"stat_name":"","pm25_avg":0,"stat__name":""}},{"type":"Feature","id":"pm25.111","geometry":{"type":"Point","coordinates":[10.597720001000027,48.952180000000055]},"geometry_name":"the_geom","properties":{"OBJECTID_1":111,"OBJECTID":111,"EoICode":"DEBY187","StationNam":"Oettingen/Goethestra?e","Longitude":10.59772,"Latitude":48.95218,"Altitude":417,"StationTyp":"background","StationAre":"suburban","avg15":12.751086,"year":9,"stat_name":"","pm25_avg":0,"stat__name":""}},{"type":"Feature","id":"pm25.112","geometry":{"type":"Point","coordinates":[8.91696599900007,53.06004500000006]},"geometry_name":"the_geom","properties":{"OBJECTID_1":112,"OBJECTID":112,"EoICode":"DEHB002","StationNam":"Bremen-Ost","Longitude":8.916966,"Latitude":53.060045,"Altitude":7,"StationTyp":"background","StationAre":"urban","avg15":11.951139,"year":9,"stat_name":"","pm25_avg":0,"stat__name":""}},{"type":"Feature","id":"pm25.113","geometry":{"type":"Point","coordinates":[8.569405000000074,53.56245500000006]},"geometry_name":"the_geom","properties":{"OBJECTID_1":113,"OBJECTID":113,"EoICode":"DEHB005","StationNam":"Bremerhaven","Longitude":8.569405,"Latitude":53.562455,"Altitude":3,"StationTyp":"background","StationAre":"urban","avg15":10.282646,"year":9,"stat_name":"","pm25_avg":0,"stat__name":""}},{"type":"Feature","id":"pm25.114","geometry":{"type":"Point","coordinates":[8.746343000000024,50.12533200000007]},"geometry_name":"the_geom","properties":{"OBJECTID_1":114,"OBJECTID":114,"EoICode":"DEHE008","StationNam":"Frankfurt-Ost","Longitude":8.746343,"Latitude":50.125332,"Altitude":100,"StationTyp":"background","StationAre":"urban","avg15":13.002718,"year":9,"stat_name":"","pm25_avg":0,"stat__name":""}},{"type":"Feature","id":"pm25.115","geometry":{"type":"Point","coordinates":[9.483396999000036,51.31424800000008]},"geometry_name":"the_geom","properties":{"OBJECTID_1":115,"OBJECTID":115,"EoICode":"DEHE013","StationNam":"Kassel-Mitte","Longitude":9.483397,"Latitude":51.314248,"Altitude":181,"StationTyp":"background","StationAre":"urban","avg15":11.948696,"year":9,"stat_name":"","pm25_avg":0,"stat__name":""}},{"type":"Feature","id":"pm25.116","geometry":{"type":"Point","coordinates":[8.244949000000076,50.050343000000055]},"geometry_name":"the_geom","properties":{"OBJECTID_1":116,"OBJECTID":116,"EoICode":"DEHE022","StationNam":"Wiesbaden-S¨¹d","Longitude":8.244949,"Latitude":50.050343,"Altitude":121,"StationTyp":"background","StationAre":"urban","avg15":12.040123,"year":9,"stat_name":"","pm25_avg":0,"stat__name":""}},{"type":"Feature","id":"pm25.117","geometry":{"type":"Point","coordinates":[9.967882000000031,53.564140000000066]},"geometry_name":"the_geom","properties":{"OBJECTID_1":117,"OBJECTID":117,"EoICode":"DEHH008","StationNam":"Hamburg Sternschanze","Longitude":9.967882,"Latitude":53.56414,"Altitude":15,"StationTyp":"background","StationAre":"urban","avg15":12.951982,"year":9,"stat_name":"","pm25_avg":0,"stat__name":""}},{"type":"Feature","id":"pm25.118","geometry":{"type":"Point","coordinates":[9.99056900000005,53.507930000000044]},"geometry_name":"the_geom","properties":{"OBJECTID_1":118,"OBJECTID":118,"EoICode":"DEHH059","StationNam":"Hamburg Wilhelmsburg","Longitude":9.990569,"Latitude":53.50793,"Altitude":3,"StationTyp":"background","StationAre":"urban","avg15":13.776988,"year":9,"stat_name":"","pm25_avg":0,"stat__name":""}},{"type":"Feature","id":"pm25.119","geometry":{"type":"Point","coordinates":[12.175512001000072,53.781750000000045]},"geometry_name":"the_geom","properties":{"OBJECTID_1":119,"OBJECTID":119,"EoICode":"DEMV019","StationNam":"G¨¹strow","Longitude":12.175512,"Latitude":53.78175,"Altitude":17,"StationTyp":"background","StationAre":"urban","avg15":11.565453,"year":9,"stat_name":"","pm25_avg":0,"stat__name":""}},{"type":"Feature","id":"pm25.120","geometry":{"type":"Point","coordinates":[12.080003001000023,54.17133000000007]},"geometry_name":"the_geom","properties":{"OBJECTID_1":120,"OBJECTID":120,"EoICode":"DEMV021","StationNam":"Rostock-Warnem¨¹nde","Longitude":12.080003,"Latitude":54.17133,"Altitude":2,"StationTyp":"background","StationAre":"urban","avg15":10.882653,"year":9,"stat_name":"","pm25_avg":0,"stat__name":""}},{"type":"Feature","id":"pm25.121","geometry":{"type":"Point","coordinates":[8.052860000000067,52.25534000000005]},"geometry_name":"the_geom","properties":{"OBJECTID_1":121,"OBJECTID":121,"EoICode":"DENI038","StationNam":"Osnabr¨¹ck","Longitude":8.05286,"Latitude":52.25534,"Altitude":95,"StationTyp":"background","StationAre":"urban","avg15":11.325708,"year":9,"stat_name":"","pm25_avg":0,"stat__name":""}},{"type":"Feature","id":"pm25.122","geometry":{"type":"Point","coordinates":[9.062550000000044,52.17017000000004]},"geometry_name":"the_geom","properties":{"OBJECTID_1":122,"OBJECTID":122,"EoICode":"DENI041","StationNam":"Weserbergland","Longitude":9.06255,"Latitude":52.17017,"Altitude":54,"StationTyp":"background","StationAre":"suburban","avg15":10.626572,"year":9,"stat_name":"","pm25_avg":0,"stat__name":""}},{"type":"Feature","id":"pm25.123","geometry":{"type":"Point","coordinates":[9.949760000000026,51.55107000000004]},"geometry_name":"the_geom","properties":{"OBJECTID_1":123,"OBJECTID":123,"EoICode":"DENI042","StationNam":"G?ttingen","Longitude":9.94976,"Latitude":51.55107,"Altitude":170,"StationTyp":"background","StationAre":"suburban","avg15":8.884077,"year":9,"stat_name":"","pm25_avg":0,"stat__name":""}},{"type":"Feature","id":"pm25.124","geometry":{"type":"Point","coordinates":[7.317470000000071,52.49855000000008]},"geometry_name":"the_geom","properties":{"OBJECTID_1":124,"OBJECTID":124,"EoICode":"DENI043","StationNam":"Emsland","Longitude":7.31747,"Latitude":52.49855,"Altitude":30,"StationTyp":"background","StationAre":"suburban","avg15":12.163193,"year":9,"stat_name":"","pm25_avg":0,"stat__name":""}},{"type":"Feature","id":"pm25.125","geometry":{"type":"Point","coordinates":[9.706120001000045,52.36292000000003]},"geometry_name":"the_geom","properties":{"OBJECTID_1":125,"OBJECTID":125,"EoICode":"DENI054","StationNam":"Hannover","Longitude":9.70612,"Latitude":52.36292,"Altitude":85,"StationTyp":"background","StationAre":"urban","avg15":11.397428,"year":9,"stat_name":"","pm25_avg":0,"stat__name":""}},{"type":"Feature","id":"pm25.126","geometry":{"type":"Point","coordinates":[7.331405000000075,51.641383000000076]},"geometry_name":"the_geom","properties":{"OBJECTID_1":126,"OBJECTID":126,"EoICode":"DENW002","StationNam":"Datteln-Hagem","Longitude":7.331405,"Latitude":51.641383,"Altitude":80,"StationTyp":"background","StationAre":"suburban","avg15":14.545125,"year":9,"stat_name":"","pm25_avg":0,"stat__name":""}},{"type":"Feature","id":"pm25.127","geometry":{"type":"Point","coordinates":[7.457462999000029,51.53691100000003]},"geometry_name":"the_geom","properties":{"OBJECTID_1":127,"OBJECTID":127,"EoICode":"DENW008","StationNam":"Dortmund-Eving","Longitude":7.457463,"Latitude":51.536911,"Altitude":75,"StationTyp":"background","StationAre":"urban","avg15":14.033249,"year":9,"stat_name":"","pm25_avg":0,"stat__name":""}},{"type":"Feature","id":"pm25.128","geometry":{"type":"Point","coordinates":[7.6938350000000355,51.547495000000026]},"geometry_name":"the_geom","properties":{"OBJECTID_1":128,"OBJECTID":128,"EoICode":"DENW010","StationNam":"Unna-K?nigsborn","Longitude":7.693835,"Latitude":51.547495,"Altitude":72,"StationTyp":"background","StationAre":"suburban","avg15":13.009496,"year":9,"stat_name":"","pm25_avg":0,"stat__name":""}},{"type":"Feature","id":"pm25.129","geometry":{"type":"Point","coordinates":[7.101786000000061,51.53364600000003]},"geometry_name":"the_geom","properties":{"OBJECTID_1":129,"OBJECTID":129,"EoICode":"DENW022","StationNam":"Gelsenkirchen-Bismarck","Longitude":7.101786,"Latitude":51.533646,"Altitude":40,"StationTyp":"background","StationAre":"suburban","avg15":14.49445,"year":9,"stat_name":"","pm25_avg":0,"stat__name":""}},{"type":"Feature","id":"pm25.130","geometry":{"type":"Point","coordinates":[6.9810450000000515,51.49652700000007]},"geometry_name":"the_geom","properties":{"OBJECTID_1":130,"OBJECTID":130,"EoICode":"DENW024","StationNam":"Essen-Vogelheim","Longitude":6.981045,"Latitude":51.496527,"Altitude":47,"StationTyp":"background","StationAre":"urban","avg15":15.073384,"year":9,"stat_name":"","pm25_avg":0,"stat__name":""}},{"type":"Feature","id":"pm25.131","geometry":{"type":"Point","coordinates":[6.629576000000043,51.67280900000003]},"geometry_name":"the_geom","properties":{"OBJECTID_1":131,"OBJECTID":131,"EoICode":"DENW030","StationNam":"Wesel-Feldmark","Longitude":6.629576,"Latitude":51.672809,"Altitude":25,"StationTyp":"background","StationAre":"suburban","avg15":13.879151,"year":9,"stat_name":"","pm25_avg":0,"stat__name":""}},{"type":"Feature","id":"pm25.132","geometry":{"type":"Point","coordinates":[6.732382999000038,51.24921100000006]},"geometry_name":"the_geom","properties":{"OBJECTID_1":132,"OBJECTID":132,"EoICode":"DENW071","StationNam":"D¨¹sseldorf-L?rick","Longitude":6.732383,"Latitude":51.249211,"Altitude":32,"StationTyp":"background","StationAre":"urban","avg15":12.705393,"year":9,"stat_name":"","pm25_avg":0,"stat__name":""}},{"type":"Feature","id":"pm25.133","geometry":{"type":"Point","coordinates":[7.2318950000000655,51.27764700000006]},"geometry_name":"the_geom","properties":{"OBJECTID_1":133,"OBJECTID":133,"EoICode":"DENW114","StationNam":"Wuppertal-Langerfeld","Longitude":7.231895,"Latitude":51.277647,"Altitude":186,"StationTyp":"background","StationAre":"urban","avg15":12.574983,"year":9,"stat_name":"","pm25_avg":0,"stat__name":""}},{"type":"Feature","id":"pm25.134","geometry":{"type":"Point","coordinates":[7.582295000000045,51.448762000000045]},"geometry_name":"the_geom","properties":{"OBJECTID_1":134,"OBJECTID":134,"EoICode":"DENW179","StationNam":"Schwerte","Longitude":7.582295,"Latitude":51.448762,"Altitude":157,"StationTyp":"background","StationAre":"urban","avg15":12.789846,"year":9,"stat_name":"","pm25_avg":0,"stat__name":""}},{"type":"Feature","id":"pm25.135","geometry":{"type":"Point","coordinates":[6.965643000000057,51.40696800000006]},"geometry_name":"the_geom","properties":{"OBJECTID_1":135,"OBJECTID":135,"EoICode":"DENW247","StationNam":"Essen-Schuir (LANUV)","Longitude":6.965643,"Latitude":51.406968,"Altitude":153,"StationTyp":"background","StationAre":"suburban","avg15":13.120164,"year":9,"stat_name":"","pm25_avg":0,"stat__name":""}},{"type":"Feature","id":"pm25.136","geometry":{"type":"Point","coordinates":[8.273965000000032,49.99497500000007]},"geometry_name":"the_geom","properties":{"OBJECTID_1":136,"OBJECTID":136,"EoICode":"DERP009","StationNam":"Mainz-Zitadelle","Longitude":8.273965,"Latitude":49.994975,"Altitude":110,"StationTyp":"background","StationAre":"urban","avg15":13.271031,"year":9,"stat_name":"","pm25_avg":0,"stat__name":""}},{"type":"Feature","id":"pm25.137","geometry":{"type":"Point","coordinates":[7.767300001000024,49.446000000000026]},"geometry_name":"the_geom","properties":{"OBJECTID_1":137,"OBJECTID":137,"EoICode":"DERP019","StationNam":"Kaiserslautern-Rathausplatz","Longitude":7.7673,"Latitude":49.446,"Altitude":232,"StationTyp":"background","StationAre":"urban","avg15":12.890498,"year":9,"stat_name":"","pm25_avg":0,"stat__name":""}},{"type":"Feature","id":"pm25.138","geometry":{"type":"Point","coordinates":[7.866207999000039,49.84213600000004]},"geometry_name":"the_geom","properties":{"OBJECTID_1":138,"OBJECTID":138,"EoICode":"DERP022","StationNam":"Bad Kreuznach-Bosenheimer Stra?e","Longitude":7.866208,"Latitude":49.842136,"Altitude":108,"StationTyp":"background","StationAre":"urban","avg15":12.711364,"year":9,"stat_name":"","pm25_avg":0,"stat__name":""}},{"type":"Feature","id":"pm25.139","geometry":{"type":"Point","coordinates":[8.423005000000046,49.351143000000036]},"geometry_name":"the_geom","properties":{"OBJECTID_1":139,"OBJECTID":139,"EoICode":"DERP053","StationNam":"Speyer-Nord","Longitude":8.423005,"Latitude":49.351143,"Altitude":103,"StationTyp":"background","StationAre":"suburban","avg15":14.384997,"year":9,"stat_name":"","pm25_avg":0,"stat__name":""}},{"type":"Feature","id":"pm25.140","geometry":{"type":"Point","coordinates":[9.532635000000028,53.924712000000056]},"geometry_name":"the_geom","properties":{"OBJECTID_1":140,"OBJECTID":140,"EoICode":"DESH015","StationNam":"Itzehoe","Longitude":9.532635,"Latitude":53.924712,"Altitude":40,"StationTyp":"background","StationAre":"suburban","avg15":12.364177,"year":9,"stat_name":"","pm25_avg":0,"stat__name":""}},{"type":"Feature","id":"pm25.141","geometry":{"type":"Point","coordinates":[10.695936000000074,53.835492000000045]},"geometry_name":"the_geom","properties":{"OBJECTID_1":141,"OBJECTID":141,"EoICode":"DESH023","StationNam":"L¨¹beck-St. J¨¹rgen","Longitude":10.695936,"Latitude":53.835492,"Altitude":12,"StationTyp":"background","StationAre":"urban","avg15":11.214417,"year":9,"stat_name":"","pm25_avg":0,"stat__name":""}},{"type":"Feature","id":"pm25.142","geometry":{"type":"Point","coordinates":[6.987601000000041,49.233464000000026]},"geometry_name":"the_geom","properties":{"OBJECTID_1":142,"OBJECTID":142,"EoICode":"DESL012","StationNam":"Saarbr¨¹cken-City","Longitude":6.987601,"Latitude":49.233464,"Altitude":192,"StationTyp":"background","StationAre":"urban","avg15":12.244933,"year":9,"stat_name":"","pm25_avg":0,"stat__name":""}},{"type":"Feature","id":"pm25.143","geometry":{"type":"Point","coordinates":[12.297411001000057,51.31790500000005]},"geometry_name":"the_geom","properties":{"OBJECTID_1":143,"OBJECTID":143,"EoICode":"DESN059","StationNam":"Leipzig-West","Longitude":12.297411,"Latitude":51.317905,"Altitude":115,"StationTyp":"background","StationAre":"urban","avg15":12.017583,"year":9,"stat_name":"","pm25_avg":0,"stat__name":""}},{"type":"Feature","id":"pm25.144","geometry":{"type":"Point","coordinates":[13.730205000000069,51.03610500000008]},"geometry_name":"the_geom","properties":{"OBJECTID_1":144,"OBJECTID":144,"EoICode":"DESN092","StationNam":"Dresden-Winckelmannstr.","Longitude":13.730205,"Latitude":51.036105,"Altitude":112,"StationTyp":"background","StationAre":"urban","avg15":13.010192,"year":9,"stat_name":"","pm25_avg":0,"stat__name":""}},{"type":"Feature","id":"pm25.145","geometry":{"type":"Point","coordinates":[11.864763000000039,52.268354000000045]},"geometry_name":"the_geom","properties":{"OBJECTID_1":145,"OBJECTID":145,"EoICode":"DEST002","StationNam":"Burg","Longitude":11.864763,"Latitude":52.268354,"Altitude":47,"StationTyp":"background","StationAre":"suburban","avg15":12.134096,"year":9,"stat_name":"","pm25_avg":0,"stat__name":""}},{"type":"Feature","id":"pm25.146","geometry":{"type":"Point","coordinates":[11.979056000000071,51.496185000000025]},"geometry_name":"the_geom","properties":{"OBJECTID_1":146,"OBJECTID":146,"EoICode":"DEST050","StationNam":"Halle/Nord","Longitude":11.979056,"Latitude":51.496185,"Altitude":116,"StationTyp":"background","StationAre":"urban","avg15":12.893257,"year":9,"stat_name":"","pm25_avg":0,"stat__name":""}},{"type":"Feature","id":"pm25.147","geometry":{"type":"Point","coordinates":[11.611464000000069,52.12789900000007]},"geometry_name":"the_geom","properties":{"OBJECTID_1":147,"OBJECTID":147,"EoICode":"DEST077","StationNam":"Magdeburg/West","Longitude":11.611464,"Latitude":52.127899,"Altitude":58,"StationTyp":"background","StationAre":"urban","avg15":12.934388,"year":9,"stat_name":"","pm25_avg":0,"stat__name":""}},{"type":"Feature","id":"pm25.148","geometry":{"type":"Point","coordinates":[11.037924001000022,50.97945500000003]},"geometry_name":"the_geom","properties":{"OBJECTID_1":148,"OBJECTID":148,"EoICode":"DETH020","StationNam":"Erfurt Kr?mpferstr.","Longitude":11.037924,"Latitude":50.979455,"Altitude":195,"StationTyp":"background","StationAre":"urban","avg15":11.104895,"year":9,"stat_name":"","pm25_avg":0,"stat__name":""}},{"type":"Feature","id":"pm25.149","geometry":{"type":"Point","coordinates":[12.20519899900006,50.65586100000007]},"geometry_name":"the_geom","properties":{"OBJECTID_1":149,"OBJECTID":149,"EoICode":"DETH036","StationNam":"Greiz Mollbergstr.","Longitude":12.205199,"Latitude":50.655861,"Altitude":265,"StationTyp":"background","StationAre":"urban","avg15":11.983944,"year":9,"stat_name":"","pm25_avg":0,"stat__name":""}},{"type":"Feature","id":"pm25.150","geometry":{"type":"Point","coordinates":[10.668641000000036,50.65324500000003]},"geometry_name":"the_geom","properties":{"OBJECTID_1":150,"OBJECTID":150,"EoICode":"DETH060","StationNam":"Zella-Mehlis","Longitude":10.668641,"Latitude":50.653245,"Altitude":490,"StationTyp":"background","StationAre":"urban","avg15":10.383987,"year":9,"stat_name":"","pm25_avg":0,"stat__name":""}},{"type":"Feature","id":"pm25.151","geometry":{"type":"Point","coordinates":[12.561412113000074,55.70028106600006]},"geometry_name":"the_geom","properties":{"OBJECTID_1":151,"OBJECTID":151,"EoICode":"DK0045A","StationNam":"Copenhagen/1259","Longitude":12.561412,"Latitude":55.700281,"Altitude":25,"StationTyp":"background","StationAre":"urban","avg15":11.635107,"year":9,"stat_name":"","pm25_avg":0,"stat__name":""}},{"type":"Feature","id":"pm25.152","geometry":{"type":"Point","coordinates":[10.193632686000058,56.15978344700005]},"geometry_name":"the_geom","properties":{"OBJECTID_1":152,"OBJECTID":152,"EoICode":"DK0056A","StationNam":"?rhus/6160","Longitude":10.193633,"Latitude":56.159783,"Altitude":21,"StationTyp":"background","StationAre":"urban","avg15":9.856579,"year":9,"stat_name":"","pm25_avg":0,"stat__name":""}},{"type":"Feature","id":"pm25.153","geometry":{"type":"Point","coordinates":[24.64945793000004,59.414169310000034]},"geometry_name":"the_geom","properties":{"OBJECTID_1":153,"OBJECTID":153,"EoICode":"EE0018A","StationNam":"?ism?e","Longitude":24.649458,"Latitude":59.414169,"Altitude":6,"StationTyp":"background","StationAre":"urban","avg15":6.27563,"year":9,"stat_name":"","pm25_avg":0,"stat__name":""}},{"type":"Feature","id":"pm25.154","geometry":{"type":"Point","coordinates":[26.734722001000023,58.37055600000008]},"geometry_name":"the_geom","properties":{"OBJECTID_1":154,"OBJECTID":154,"EoICode":"EE0021A","StationNam":"Tartu","Longitude":26.734722,"Latitude":58.370556,"Altitude":41,"StationTyp":"background","StationAre":"urban","avg15":8.941618,"year":9,"stat_name":"","pm25_avg":0,"stat__name":""}},{"type":"Feature","id":"pm25.155","geometry":{"type":"Point","coordinates":[28.179166999000074,59.376160999000035]},"geometry_name":"the_geom","properties":{"OBJECTID_1":155,"OBJECTID":155,"EoICode":"EE0022A","StationNam":"Narva","Longitude":28.179167,"Latitude":59.376161,"Altitude":25,"StationTyp":"background","StationAre":"urban","avg15":5.943251,"year":9,"stat_name":"","pm25_avg":0,"stat__name":""}},{"type":"Feature","id":"pm25.156","geometry":{"type":"Point","coordinates":[2.119573944000024,41.38490637500007]},"geometry_name":"the_geom","properties":{"OBJECTID_1":156,"OBJECTID":156,"EoICode":"ES0567A","StationNam":"Barcelona (Zona Universit?ria)","Longitude":2.119574,"Latitude":41.384906,"Altitude":24,"StationTyp":"background","StationAre":"urban","avg15":15.060833,"year":9,"stat_name":"","pm25_avg":0,"stat__name":""}},{"type":"Feature","id":"pm25.157","geometry":{"type":"Point","coordinates":[2.204522594000025,41.40388185100005]},"geometry_name":"the_geom","properties":{"OBJECTID_1":157,"OBJECTID":157,"EoICode":"ES0691A","StationNam":"Barcelona (el Poblenou)","Longitude":2.204523,"Latitude":41.403882,"Altitude":3,"StationTyp":"background","StationAre":"urban","avg15":17.963018,"year":9,"stat_name":"","pm25_avg":0,"stat__name":""}},{"type":"Feature","id":"pm25.158","geometry":{"type":"Point","coordinates":[-3.7491666599999576,40.42000000000007]},"geometry_name":"the_geom","properties":{"OBJECTID_1":158,"OBJECTID":158,"EoICode":"ES1193A","StationNam":"CASA DE CAMPO","Longitude":-3.749167,"Latitude":40.42,"Altitude":645,"StationTyp":"background","StationAre":"suburban","avg15":9.970065,"year":9,"stat_name":"","pm25_avg":0,"stat__name":""}},{"type":"Feature","id":"pm25.159","geometry":{"type":"Point","coordinates":[-8.736944439999945,42.21027777000006]},"geometry_name":"the_geom","properties":{"OBJECTID_1":159,"OBJECTID":159,"EoICode":"ES1440A","StationNam":"ESTACION 1 (ESTE)","Longitude":-8.736944,"Latitude":42.210278,"Altitude":12,"StationTyp":"background","StationAre":"urban","avg15":14.872995,"year":9,"stat_name":"","pm25_avg":0,"stat__name":""}},{"type":"Feature","id":"pm25.160","geometry":{"type":"Point","coordinates":[-3.6361099999999738,42.336110000000076]},"geometry_name":"the_geom","properties":{"OBJECTID_1":160,"OBJECTID":160,"EoICode":"ES1443A","StationNam":"BURGOS 4","Longitude":-3.63611,"Latitude":42.33611,"Altitude":929,"StationTyp":"background","StationAre":"urban","avg15":10.019336,"year":9,"stat_name":"","pm25_avg":0,"stat__name":""}},{"type":"Feature","id":"pm25.161","geometry":{"type":"Point","coordinates":[-1.6513899999999353,42.80722000000003]},"geometry_name":"the_geom","properties":{"OBJECTID_1":161,"OBJECTID":161,"EoICode":"ES1472A","StationNam":"ITURRAMA","Longitude":-1.65139,"Latitude":42.80722,"Altitude":449,"StationTyp":"background","StationAre":"urban","avg15":11.227654,"year":9,"stat_name":"","pm25_avg":0,"stat__name":""}},{"type":"Feature","id":"pm25.162","geometry":{"type":"Point","coordinates":[-6.360279999999932,39.47277999900007]},"geometry_name":"the_geom","properties":{"OBJECTID_1":162,"OBJECTID":162,"EoICode":"ES1615A","StationNam":"C¨¢CERES","Longitude":-6.36028,"Latitude":39.47278,"Altitude":389,"StationTyp":"background","StationAre":"urban","avg15":6.720053,"year":9,"stat_name":"","pm25_avg":0,"stat__name":""}},{"type":"Feature","id":"pm25.163","geometry":{"type":"Point","coordinates":[-0.36833332999992763,39.47805555000008]},"geometry_name":"the_geom","properties":{"OBJECTID_1":163,"OBJECTID":163,"EoICode":"ES1619A","StationNam":"VAL?NCIA-VIVERS","Longitude":-0.368333,"Latitude":39.478056,"Altitude":11,"StationTyp":"background","StationAre":"urban","avg15":19.688172,"year":9,"stat_name":"","pm25_avg":0,"stat__name":""}},{"type":"Feature","id":"pm25.164","geometry":{"type":"Point","coordinates":[-0.8936099999999669,41.63528000000008]},"geometry_name":"the_geom","properties":{"OBJECTID_1":164,"OBJECTID":164,"EoICode":"ES1641A","StationNam":"RENOVALES","Longitude":-0.89361,"Latitude":41.63528,"Altitude":220,"StationTyp":"background","StationAre":"urban","avg15":12.155689,"year":9,"stat_name":"","pm25_avg":0,"stat__name":""}},{"type":"Feature","id":"pm25.165","geometry":{"type":"Point","coordinates":[-0.6033333299999413,39.930555550000065]},"geometry_name":"the_geom","properties":{"OBJECTID_1":165,"OBJECTID":165,"EoICode":"ES1691A","StationNam":"VIVER","Longitude":-0.603333,"Latitude":39.930556,"Altitude":616,"StationTyp":"background","StationAre":"suburban","avg15":8.071548,"year":9,"stat_name":"","pm25_avg":0,"stat__name":""}},{"type":"Feature","id":"pm25.166","geometry":{"type":"Point","coordinates":[-3.4841700009999386,40.45500000000004]},"geometry_name":"the_geom","properties":{"OBJECTID_1":166,"OBJECTID":166,"EoICode":"ES1752A","StationNam":"TORREJON DE ARDOZ","Longitude":-3.48417,"Latitude":40.455,"Altitude":581,"StationTyp":"background","StationAre":"suburban","avg15":9.272346,"year":9,"stat_name":"","pm25_avg":0,"stat__name":""}},{"type":"Feature","id":"pm25.167","geometry":{"type":"Point","coordinates":[-3.679719999999975,40.185280000000034]},"geometry_name":"the_geom","properties":{"OBJECTID_1":167,"OBJECTID":167,"EoICode":"ES1809A","StationNam":"VALDEMORO","Longitude":-3.67972,"Latitude":40.18528,"Altitude":610,"StationTyp":"background","StationAre":"suburban","avg15":12.140876,"year":9,"stat_name":"","pm25_avg":0,"stat__name":""}},{"type":"Feature","id":"pm25.168","geometry":{"type":"Point","coordinates":[-4.020829999999933,39.868059999000025]},"geometry_name":"the_geom","properties":{"OBJECTID_1":168,"OBJECTID":168,"EoICode":"ES1818A","StationNam":"TOLEDO2","Longitude":-4.02083,"Latitude":39.86806,"Altitude":500,"StationTyp":"background","StationAre":"urban","avg15":11.965899,"year":9,"stat_name":"","pm25_avg":0,"stat__name":""}},{"type":"Feature","id":"pm25.169","geometry":{"type":"Point","coordinates":[-3.503059999999948,40.59332999900005]},"geometry_name":"the_geom","properties":{"OBJECTID_1":169,"OBJECTID":169,"EoICode":"ES1838A","StationNam":"ALGETE","Longitude":-3.50306,"Latitude":40.59333,"Altitude":721,"StationTyp":"background","StationAre":"suburban","avg15":6.545989,"year":9,"stat_name":"","pm25_avg":0,"stat__name":""}},{"type":"Feature","id":"pm25.170","geometry":{"type":"Point","coordinates":[2.1479920320000474,41.426077199000076]},"geometry_name":"the_geom","properties":{"OBJECTID_1":170,"OBJECTID":170,"EoICode":"ES1856A","StationNam":"Barcelona (parc de la Vall d'Hebron)","Longitude":2.147992,"Latitude":41.426077,"Altitude":136,"StationTyp":"background","StationAre":"urban","avg15":15.321534,"year":9,"stat_name":"","pm25_avg":0,"stat__name":""}},{"type":"Feature","id":"pm25.171","geometry":{"type":"Point","coordinates":[-8.55916665999996,42.875833330000034]},"geometry_name":"the_geom","properties":{"OBJECTID_1":171,"OBJECTID":171,"EoICode":"ES1868A","StationNam":"COMPOSTELA","Longitude":-8.559167,"Latitude":42.875833,"Altitude":220,"StationTyp":"background","StationAre":"urban","avg15":7.301614,"year":9,"stat_name":"","pm25_avg":0,"stat__name":""}},{"type":"Feature","id":"pm25.172","geometry":{"type":"Point","coordinates":[-0.3363888799999586,39.48027777000004]},"geometry_name":"the_geom","properties":{"OBJECTID_1":172,"OBJECTID":172,"EoICode":"ES1885A","StationNam":"VAL?NCIA-POLIT?CNIC","Longitude":-0.336389,"Latitude":39.480278,"Altitude":7,"StationTyp":"background","StationAre":"urban","avg15":12.099082,"year":9,"stat_name":"","pm25_avg":0,"stat__name":""}},{"type":"Feature","id":"pm25.173","geometry":{"type":"Point","coordinates":[-3.83388999999994,40.34193999900003]},"geometry_name":"the_geom","properties":{"OBJECTID_1":173,"OBJECTID":173,"EoICode":"ES1890A","StationNam":"ALCORC¨®N","Longitude":-3.83389,"Latitude":40.34194,"Altitude":693,"StationTyp":"background","StationAre":"urban","avg15":8.019741,"year":9,"stat_name":"","pm25_avg":0,"stat__name":""}},{"type":"Feature","id":"pm25.174","geometry":{"type":"Point","coordinates":[-0.8033333299999299,38.454722219000075]},"geometry_name":"the_geom","properties":{"OBJECTID_1":174,"OBJECTID":174,"EoICode":"ES1914A","StationNam":"ELDA-LACY","Longitude":-0.803333,"Latitude":38.454722,"Altitude":355,"StationTyp":"background","StationAre":"suburban","avg15":9.289138,"year":9,"stat_name":"","pm25_avg":0,"stat__name":""}},{"type":"Feature","id":"pm25.175","geometry":{"type":"Point","coordinates":[-0.5066666599999508,38.34027776900007]},"geometry_name":"the_geom","properties":{"OBJECTID_1":175,"OBJECTID":175,"EoICode":"ES1915A","StationNam":"ALACANT-FLORIDA-BABEL","Longitude":-0.506667,"Latitude":38.340278,"Altitude":55,"StationTyp":"background","StationAre":"urban","avg15":12.634615,"year":9,"stat_name":"","pm25_avg":0,"stat__name":""}},{"type":"Feature","id":"pm25.176","geometry":{"type":"Point","coordinates":[-3.6866666599999576,40.39805554900005]},"geometry_name":"the_geom","properties":{"OBJECTID_1":176,"OBJECTID":176,"EoICode":"ES1937A","StationNam":"MENDEZ ALVARO","Longitude":-3.686667,"Latitude":40.398056,"Altitude":609,"StationTyp":"background","StationAre":"urban","avg15":11.917005,"year":9,"stat_name":"","pm25_avg":0,"stat__name":""}},{"type":"Feature","id":"pm25.177","geometry":{"type":"Point","coordinates":[-8.40888887999995,43.38249999900006]},"geometry_name":"the_geom","properties":{"OBJECTID_1":177,"OBJECTID":177,"EoICode":"ES1957A","StationNam":"TORRE DE H¨¦RCULES","Longitude":-8.408889,"Latitude":43.3825,"Altitude":25,"StationTyp":"background","StationAre":"suburban","avg15":16.062731,"year":9,"stat_name":"","pm25_avg":0,"stat__name":""}},{"type":"Feature","id":"pm25.178","geometry":{"type":"Point","coordinates":[-5.670649999999966,43.51658799900008]},"geometry_name":"the_geom","properties":{"OBJECTID_1":178,"OBJECTID":178,"EoICode":"ES1974A","StationNam":"MONTEVIL","Longitude":-5.67065,"Latitude":43.516588,"Altitude":51,"StationTyp":"background","StationAre":"suburban","avg15":10.773827,"year":9,"stat_name":"","pm25_avg":0,"stat__name":""}},{"type":"Feature","id":"pm25.179","geometry":{"type":"Point","coordinates":[-6.1472199999999475,40.077780000000075]},"geometry_name":"the_geom","properties":{"OBJECTID_1":179,"OBJECTID":179,"EoICode":"ES1997A","StationNam":"PLASENCIA","Longitude":-6.14722,"Latitude":40.07778,"Altitude":181,"StationTyp":"background","StationAre":"suburban","avg15":7.034714,"year":9,"stat_name":"","pm25_avg":0,"stat__name":""}},{"type":"Feature","id":"pm25.180","geometry":{"type":"Point","coordinates":[28.24584999900003,61.057479999000066]},"geometry_name":"the_geom","properties":{"OBJECTID_1":180,"OBJECTID":180,"EoICode":"FI00280","StationNam":"Tiril? Pekkasenkatu","Longitude":28.24585,"Latitude":61.05748,"Altitude":91,"StationTyp":"background","StationAre":"suburban","avg15":7.017104,"year":9,"stat_name":"","pm25_avg":0,"stat__name":""}},{"type":"Feature","id":"pm25.181","geometry":{"type":"Point","coordinates":[27.669520000000034,62.89360000000005]},"geometry_name":"the_geom","properties":{"OBJECTID_1":181,"OBJECTID":181,"EoICode":"FI00363","StationNam":"Kasarmipuisto","Longitude":27.66952,"Latitude":62.8936,"Altitude":112,"StationTyp":"background","StationAre":"urban","avg15":4.539228,"year":9,"stat_name":"","pm25_avg":0,"stat__name":""}},{"type":"Feature","id":"pm25.182","geometry":{"type":"Point","coordinates":[24.950600001000055,60.18739000000005]},"geometry_name":"the_geom","properties":{"OBJECTID_1":182,"OBJECTID":182,"EoICode":"FI00425","StationNam":"Kallio 2","Longitude":24.9506,"Latitude":60.18739,"Altitude":21,"StationTyp":"background","StationAre":"urban","avg15":5.415536,"year":9,"stat_name":"","pm25_avg":0,"stat__name":""}},{"type":"Feature","id":"pm25.183","geometry":{"type":"Point","coordinates":[21.604070000000036,63.10120999900005]},"geometry_name":"the_geom","properties":{"OBJECTID_1":183,"OBJECTID":183,"EoICode":"FI00586","StationNam":"Vaasa vesitorni","Longitude":21.60407,"Latitude":63.10121,"Altitude":16,"StationTyp":"background","StationAre":"urban","avg15":4.354429,"year":9,"stat_name":"","pm25_avg":0,"stat__name":""}},{"type":"Feature","id":"pm25.184","geometry":{"type":"Point","coordinates":[24.062870000000032,60.251450000000034]},"geometry_name":"the_geom","properties":{"OBJECTID_1":184,"OBJECTID":184,"EoICode":"FI00761","StationNam":"Nahkurintori 2","Longitude":24.06287,"Latitude":60.25145,"Altitude":56,"StationTyp":"background","StationAre":"urban","avg15":4.460459,"year":9,"stat_name":"","pm25_avg":0,"stat__name":""}},{"type":"Feature","id":"pm25.185","geometry":{"type":"Point","coordinates":[25.102440001000048,60.22393000000005]},"geometry_name":"the_geom","properties":{"OBJECTID_1":185,"OBJECTID":185,"EoICode":"FI00781","StationNam":"Vartiokyl? Huivipolku","Longitude":25.10244,"Latitude":60.22393,"Altitude":25,"StationTyp":"background","StationAre":"suburban","avg15":6.839457,"year":9,"stat_name":"","pm25_avg":0,"stat__name":""}},{"type":"Feature","id":"pm25.186","geometry":{"type":"Point","coordinates":[23.80221000000006,61.499100000000055]},"geometry_name":"the_geom","properties":{"OBJECTID_1":186,"OBJECTID":186,"EoICode":"FI00801","StationNam":"Kaleva","Longitude":23.80221,"Latitude":61.4991,"Altitude":109,"StationTyp":"background","StationAre":"urban","avg15":5.945455,"year":9,"stat_name":"","pm25_avg":0,"stat__name":""}},{"type":"Feature","id":"pm25.187","geometry":{"type":"Point","coordinates":[6.180831363000038,49.11942696600005]},"geometry_name":"the_geom","properties":{"OBJECTID_1":187,"OBJECTID":187,"EoICode":"FR01011","StationNam":"Metz-Centre","Longitude":6.180831,"Latitude":49.119427,"Altitude":192,"StationTyp":"background","StationAre":"urban","avg15":15.01001,"year":9,"stat_name":"","pm25_avg":0,"stat__name":""}},{"type":"Feature","id":"pm25.188","geometry":{"type":"Point","coordinates":[6.156945160000021,49.35831439200007]},"geometry_name":"the_geom","properties":{"OBJECTID_1":188,"OBJECTID":188,"EoICode":"FR01020","StationNam":"Thionville-Centre","Longitude":6.156945,"Latitude":49.358314,"Altitude":154,"StationTyp":"background","StationAre":"urban","avg15":14.09636,"year":9,"stat_name":"","pm25_avg":0,"stat__name":""}},{"type":"Feature","id":"pm25.189","geometry":{"type":"Point","coordinates":[5.219723841000075,43.510559976000025]},"geometry_name":"the_geom","properties":{"OBJECTID_1":189,"OBJECTID":189,"EoICode":"FR02020","StationNam":"Rognac les Brets","Longitude":5.219724,"Latitude":43.51056,"Altitude":45,"StationTyp":"background","StationAre":"suburban","avg15":12.691131,"year":9,"stat_name":"","pm25_avg":0,"stat__name":""}},{"type":"Feature","id":"pm25.190","geometry":{"type":"Point","coordinates":[2.2947194440000658,48.92969196100006]},"geometry_name":"the_geom","properties":{"OBJECTID_1":190,"OBJECTID":190,"EoICode":"FR04002","StationNam":"GENNEVILLIERS","Longitude":2.294719,"Latitude":48.929692,"Altitude":28,"StationTyp":"background","StationAre":"urban","avg15":13.264381,"year":9,"stat_name":"","pm25_avg":0,"stat__name":""}},{"type":"Feature","id":"pm25.191","geometry":{"type":"Point","coordinates":[2.4447201300000643,48.99085605400006]},"geometry_name":"the_geom","properties":{"OBJECTID_1":191,"OBJECTID":191,"EoICode":"FR04024","StationNam":"GONESSE","Longitude":2.44472,"Latitude":48.990856,"Altitude":65,"StationTyp":"background","StationAre":"suburban","avg15":13.844158,"year":9,"stat_name":"","pm25_avg":0,"stat__name":""}},{"type":"Feature","id":"pm25.192","geometry":{"type":"Point","coordinates":[2.3758013810000307,48.77577268600004]},"geometry_name":"the_geom","properties":{"OBJECTID_1":192,"OBJECTID":192,"EoICode":"FR04034","StationNam":"VITRY-SUR-SEINE","Longitude":2.375801,"Latitude":48.775773,"Altitude":95,"StationTyp":"background","StationAre":"urban","avg15":13.648356,"year":9,"stat_name":"","pm25_avg":0,"stat__name":""}},{"type":"Feature","id":"pm25.193","geometry":{"type":"Point","coordinates":[2.3509988960000214,48.85899751000005]},"geometry_name":"the_geom","properties":{"OBJECTID_1":193,"OBJECTID":193,"EoICode":"FR04143","StationNam":"PARIS Centre","Longitude":2.350999,"Latitude":48.858998,"Altitude":37,"StationTyp":"background","StationAre":"urban","avg15":14.266079,"year":9,"stat_name":"","pm25_avg":0,"stat__name":""}},{"type":"Feature","id":"pm25.194","geometry":{"type":"Point","coordinates":[2.452499540000076,48.90247727900004]},"geometry_name":"the_geom","properties":{"OBJECTID_1":194,"OBJECTID":194,"EoICode":"FR04156","StationNam":"BOBIGNY","Longitude":2.4525,"Latitude":48.902477,"Altitude":51,"StationTyp":"background","StationAre":"urban","avg15":13.432214,"year":9,"stat_name":"","pm25_avg":0,"stat__name":""}},{"type":"Feature","id":"pm25.195","geometry":{"type":"Point","coordinates":[1.8305329880000727,48.63372988100008]},"geometry_name":"the_geom","properties":{"OBJECTID_1":195,"OBJECTID":195,"EoICode":"FR04181","StationNam":"RAMBOUILLET","Longitude":1.830533,"Latitude":48.63373,"Altitude":164,"StationTyp":"background","StationAre":"suburban","avg15":11.77751,"year":9,"stat_name":"","pm25_avg":0,"stat__name":""}},{"type":"Feature","id":"pm25.196","geometry":{"type":"Point","coordinates":[0.10064544800002295,49.514695380000035]},"geometry_name":"the_geom","properties":{"OBJECTID_1":196,"OBJECTID":196,"EoICode":"FR05090","StationNam":"Le Havre ville-haute","Longitude":0.100645,"Latitude":49.514695,"Altitude":92,"StationTyp":"background","StationAre":"urban","avg15":10.268031,"year":9,"stat_name":"","pm25_avg":0,"stat__name":""}},{"type":"Feature","id":"pm25.197","geometry":{"type":"Point","coordinates":[3.508037965000028,50.35852995500005]},"geometry_name":"the_geom","properties":{"OBJECTID_1":197,"OBJECTID":197,"EoICode":"FR06001","StationNam":"Valenciennes Acacias","Longitude":3.508038,"Latitude":50.35853,"Altitude":43,"StationTyp":"background","StationAre":"urban","avg15":14.247516,"year":9,"stat_name":"","pm25_avg":0,"stat__name":""}},{"type":"Feature","id":"pm25.198","geometry":{"type":"Point","coordinates":[3.2360640300000227,50.172479459000044]},"geometry_name":"the_geom","properties":{"OBJECTID_1":198,"OBJECTID":198,"EoICode":"FR06009","StationNam":"Cambrai Gambetta","Longitude":3.236064,"Latitude":50.172479,"Altitude":59,"StationTyp":"background","StationAre":"urban","avg15":12.300589,"year":9,"stat_name":"","pm25_avg":0,"stat__name":""}},{"type":"Feature","id":"pm25.199","geometry":{"type":"Point","coordinates":[3.1138302690000614,45.797264358000064]},"geometry_name":"the_geom","properties":{"OBJECTID_1":199,"OBJECTID":199,"EoICode":"FR07004","StationNam":"Montferrand","Longitude":3.11383,"Latitude":45.797264,"Altitude":340,"StationTyp":"background","StationAre":"urban","avg15":11.424204,"year":9,"stat_name":"","pm25_avg":0,"stat__name":""}},{"type":"Feature","id":"pm25.200","geometry":{"type":"Point","coordinates":[3.8868934530000274,43.59155227000008]},"geometry_name":"the_geom","properties":{"OBJECTID_1":200,"OBJECTID":200,"EoICode":"FR08016","StationNam":"Pr¨¦s Ar?nes","Longitude":3.886893,"Latitude":43.591552,"Altitude":8,"StationTyp":"background","StationAre":"urban","avg15":14.051007,"year":9,"stat_name":"","pm25_avg":0,"stat__name":""}},{"type":"Feature","id":"pm25.201","geometry":{"type":"Point","coordinates":[4.088421505000042,43.67574935400006]},"geometry_name":"the_geom","properties":{"OBJECTID_1":201,"OBJECTID":201,"EoICode":"FR08020","StationNam":"Lunel","Longitude":4.088422,"Latitude":43.675749,"Altitude":10,"StationTyp":"background","StationAre":"suburban","avg15":11.80413,"year":9,"stat_name":"","pm25_avg":0,"stat__name":""}},{"type":"Feature","id":"pm25.202","geometry":{"type":"Point","coordinates":[4.697362486000031,44.05353119800003]},"geometry_name":"the_geom","properties":{"OBJECTID_1":202,"OBJECTID":202,"EoICode":"FR08252","StationNam":"GARNOR03","Longitude":4.697362,"Latitude":44.053531,"Altitude":83,"StationTyp":"background","StationAre":"suburban","avg15":14.732841,"year":9,"stat_name":"","pm25_avg":0,"stat__name":""}},{"type":"Feature","id":"pm25.203","geometry":{"type":"Point","coordinates":[2.8996988550000538,42.69577667200008]},"geometry_name":"the_geom","properties":{"OBJECTID_1":203,"OBJECTID":203,"EoICode":"FR08714","StationNam":"Les Carmes","Longitude":2.899699,"Latitude":42.695777,"Altitude":25,"StationTyp":"background","StationAre":"urban","avg15":10.047503,"year":9,"stat_name":"","pm25_avg":0,"stat__name":""}},{"type":"Feature","id":"pm25.204","geometry":{"type":"Point","coordinates":[-1.1535985209999353,46.16257273900004]},"geometry_name":"the_geom","properties":{"OBJECTID_1":204,"OBJECTID":204,"EoICode":"FR09003","StationNam":"place de VERDUN","Longitude":-1.153599,"Latitude":46.162573,"Altitude":10,"StationTyp":"background","StationAre":"urban","avg15":10.455317,"year":9,"stat_name":"","pm25_avg":0,"stat__name":""}},{"type":"Feature","id":"pm25.205","geometry":{"type":"Point","coordinates":[-0.45888909099994635,46.32956220800003]},"geometry_name":"the_geom","properties":{"OBJECTID_1":205,"OBJECTID":205,"EoICode":"FR09019","StationNam":"Ecole Jules Ferry","Longitude":-0.458889,"Latitude":46.329562,"Altitude":48,"StationTyp":"background","StationAre":"urban","avg15":11.060378,"year":9,"stat_name":"","pm25_avg":0,"stat__name":""}},{"type":"Feature","id":"pm25.206","geometry":{"type":"Point","coordinates":[0.1671665920000578,45.64743924600003]},"geometry_name":"the_geom","properties":{"OBJECTID_1":206,"OBJECTID":206,"EoICode":"FR09103","StationNam":"Square Pablo Casals","Longitude":0.167167,"Latitude":45.647439,"Altitude":83,"StationTyp":"background","StationAre":"urban","avg15":11.263739,"year":9,"stat_name":"","pm25_avg":0,"stat__name":""}},{"type":"Feature","id":"pm25.207","geometry":{"type":"Point","coordinates":[-1.211207480999974,46.16163945200003]},"geometry_name":"the_geom","properties":{"OBJECTID_1":207,"OBJECTID":207,"EoICode":"FR09203","StationNam":"Place Orbigny LR","Longitude":-1.211207,"Latitude":46.161639,"Altitude":10,"StationTyp":"background","StationAre":"urban","avg15":10.200199,"year":9,"stat_name":"","pm25_avg":0,"stat__name":""}},{"type":"Feature","id":"pm25.208","geometry":{"type":"Point","coordinates":[2.4200434090000726,51.048571726000034]},"geometry_name":"the_geom","properties":{"OBJECTID_1":208,"OBJECTID":208,"EoICode":"FR10004","StationNam":"Malo-les-Bains","Longitude":2.420043,"Latitude":51.048572,"Altitude":8,"StationTyp":"background","StationAre":"urban","avg15":11.856743,"year":9,"stat_name":"","pm25_avg":0,"stat__name":""}},{"type":"Feature","id":"pm25.209","geometry":{"type":"Point","coordinates":[1.8430824520000328,50.947317025000075]},"geometry_name":"the_geom","properties":{"OBJECTID_1":209,"OBJECTID":209,"EoICode":"FR10016","StationNam":"Calais Berthelot","Longitude":1.843082,"Latitude":50.947317,"Altitude":4,"StationTyp":"background","StationAre":"urban","avg15":10.783774,"year":9,"stat_name":"","pm25_avg":0,"stat__name":""}},{"type":"Feature","id":"pm25.210","geometry":{"type":"Point","coordinates":[2.366270256000064,50.99596494900004]},"geometry_name":"the_geom","properties":{"OBJECTID_1":210,"OBJECTID":210,"EoICode":"FR10029","StationNam":"Cappelle","Longitude":2.36627,"Latitude":50.995965,"Altitude":2,"StationTyp":"background","StationAre":"suburban","avg15":13.016788,"year":9,"stat_name":"","pm25_avg":0,"stat__name":""}},{"type":"Feature","id":"pm25.211","geometry":{"type":"Point","coordinates":[3.090312375000053,50.62803895700006]},"geometry_name":"the_geom","properties":{"OBJECTID_1":211,"OBJECTID":211,"EoICode":"FR11025","StationNam":"Lille Fives","Longitude":3.090312,"Latitude":50.628039,"Altitude":25,"StationTyp":"background","StationAre":"urban","avg15":15.476296,"year":9,"stat_name":"","pm25_avg":0,"stat__name":""}},{"type":"Feature","id":"pm25.212","geometry":{"type":"Point","coordinates":[1.4438891060000287,43.58719291800003]},"geometry_name":"the_geom","properties":{"OBJECTID_1":212,"OBJECTID":212,"EoICode":"FR12030","StationNam":"BERTHELOT","Longitude":1.443889,"Latitude":43.587193,"Altitude":150,"StationTyp":"background","StationAre":"urban","avg15":11.859996,"year":9,"stat_name":"","pm25_avg":0,"stat__name":""}},{"type":"Feature","id":"pm25.213","geometry":{"type":"Point","coordinates":[4.020553784000072,49.22414473200007]},"geometry_name":"the_geom","properties":{"OBJECTID_1":213,"OBJECTID":213,"EoICode":"FR14012","StationNam":"Jean d Aulan","Longitude":4.020554,"Latitude":49.224145,"Altitude":93,"StationTyp":"background","StationAre":"urban","avg15":13.463603,"year":9,"stat_name":"","pm25_avg":0,"stat__name":""}},{"type":"Feature","id":"pm25.214","geometry":{"type":"Point","coordinates":[4.9661114690000545,48.64583929100007]},"geometry_name":"the_geom","properties":{"OBJECTID_1":214,"OBJECTID":214,"EoICode":"FR14042","StationNam":"St DIZIER L. Michel","Longitude":4.966111,"Latitude":48.645839,"Altitude":147,"StationTyp":"background","StationAre":"urban","avg15":11.944279,"year":9,"stat_name":"","pm25_avg":0,"stat__name":""}},{"type":"Feature","id":"pm25.215","geometry":{"type":"Point","coordinates":[5.735599359000048,45.16192888300003]},"geometry_name":"the_geom","properties":{"OBJECTID_1":215,"OBJECTID":215,"EoICode":"FR15043","StationNam":"Grenoble Les Frenes","Longitude":5.735599,"Latitude":45.161929,"Altitude":214,"StationTyp":"background","StationAre":"urban","avg15":15.824027,"year":9,"stat_name":"","pm25_avg":0,"stat__name":""}},{"type":"Feature","id":"pm25.216","geometry":{"type":"Point","coordinates":[7.7663308890000735,48.57034554900008]},"geometry_name":"the_geom","properties":{"OBJECTID_1":216,"OBJECTID":216,"EoICode":"FR16038","StationNam":"STG Est","Longitude":7.766331,"Latitude":48.570346,"Altitude":139,"StationTyp":"background","StationAre":"urban","avg15":17.091193,"year":9,"stat_name":"","pm25_avg":0,"stat__name":""}},{"type":"Feature","id":"pm25.217","geometry":{"type":"Point","coordinates":[7.309079427000029,47.73741080000008]},"geometry_name":"the_geom","properties":{"OBJECTID_1":217,"OBJECTID":217,"EoICode":"FR16066","StationNam":"Mulhouse Sud 2","Longitude":7.309079,"Latitude":47.737411,"Altitude":250,"StationTyp":"background","StationAre":"urban","avg15":14.391216,"year":9,"stat_name":"","pm25_avg":0,"stat__name":""}},{"type":"Feature","id":"pm25.218","geometry":{"type":"Point","coordinates":[3.2839981340000577,49.851338604000034]},"geometry_name":"the_geom","properties":{"OBJECTID_1":218,"OBJECTID":218,"EoICode":"FR18042","StationNam":"P. Roth St Quentin","Longitude":3.283998,"Latitude":49.851339,"Altitude":95,"StationTyp":"background","StationAre":"urban","avg15":13.069344,"year":9,"stat_name":"","pm25_avg":0,"stat__name":""}},{"type":"Feature","id":"pm25.219","geometry":{"type":"Point","coordinates":[2.4744004670000663,49.25956816900003]},"geometry_name":"the_geom","properties":{"OBJECTID_1":219,"OBJECTID":219,"EoICode":"FR18043","StationNam":"Faiencerie Creil","Longitude":2.4744,"Latitude":49.259568,"Altitude":34,"StationTyp":"background","StationAre":"urban","avg15":11.84155,"year":9,"stat_name":"","pm25_avg":0,"stat__name":""}},{"type":"Feature","id":"pm25.220","geometry":{"type":"Point","coordinates":[2.3046009130000584,49.902513603000045]},"geometry_name":"the_geom","properties":{"OBJECTID_1":220,"OBJECTID":220,"EoICode":"FR18053","StationNam":"St Pierre Amiens","Longitude":2.304601,"Latitude":49.902514,"Altitude":28,"StationTyp":"background","StationAre":"urban","avg15":12.436338,"year":9,"stat_name":"","pm25_avg":0,"stat__name":""}},{"type":"Feature","id":"pm25.221","geometry":{"type":"Point","coordinates":[-4.486815348999926,48.386397223000074]},"geometry_name":"the_geom","properties":{"OBJECTID_1":221,"OBJECTID":221,"EoICode":"FR19012","StationNam":"Brest Mace","Longitude":-4.486815,"Latitude":48.386397,"Altitude":48,"StationTyp":"background","StationAre":"urban","avg15":9.130502,"year":9,"stat_name":"","pm25_avg":0,"stat__name":""}},{"type":"Feature","id":"pm25.222","geometry":{"type":"Point","coordinates":[-3.3948053239999467,47.74248535800007]},"geometry_name":"the_geom","properties":{"OBJECTID_1":222,"OBJECTID":222,"EoICode":"FR19032","StationNam":"Lorient B. Bissonnet","Longitude":-3.394805,"Latitude":47.742485,"Altitude":29,"StationTyp":"background","StationAre":"urban","avg15":8.986247,"year":9,"stat_name":"","pm25_avg":0,"stat__name":""}},{"type":"Feature","id":"pm25.223","geometry":{"type":"Point","coordinates":[-2.763891550999972,47.64888906600004]},"geometry_name":"the_geom","properties":{"OBJECTID_1":223,"OBJECTID":223,"EoICode":"FR19033","StationNam":"Vannes UTA","Longitude":-2.763892,"Latitude":47.648889,"Altitude":17,"StationTyp":"background","StationAre":"urban","avg15":6.97379,"year":9,"stat_name":"","pm25_avg":0,"stat__name":""}},{"type":"Feature","id":"pm25.224","geometry":{"type":"Point","coordinates":[4.924699135000026,45.77891060500008]},"geometry_name":"the_geom","properties":{"OBJECTID_1":224,"OBJECTID":224,"EoICode":"FR20046","StationNam":"VAULX EN VELIN","Longitude":4.924699,"Latitude":45.778911,"Altitude":173,"StationTyp":"background","StationAre":"urban","avg15":14.267857,"year":9,"stat_name":"","pm25_avg":0,"stat__name":""}},{"type":"Feature","id":"pm25.225","geometry":{"type":"Point","coordinates":[4.719281379000051,45.98639951000007]},"geometry_name":"the_geom","properties":{"OBJECTID_1":225,"OBJECTID":225,"EoICode":"FR20061","StationNam":"VILLEFRANCHE Village","Longitude":4.719281,"Latitude":45.9864,"Altitude":204,"StationTyp":"background","StationAre":"urban","avg15":15.162516,"year":9,"stat_name":"","pm25_avg":0,"stat__name":""}},{"type":"Feature","id":"pm25.226","geometry":{"type":"Point","coordinates":[4.854217317000064,45.757730510000044]},"geometry_name":"the_geom","properties":{"OBJECTID_1":226,"OBJECTID":226,"EoICode":"FR20062","StationNam":"LYON Centre","Longitude":4.854217,"Latitude":45.757731,"Altitude":160,"StationTyp":"background","StationAre":"urban","avg15":17.283563,"year":9,"stat_name":"","pm25_avg":0,"stat__name":""}},{"type":"Feature","id":"pm25.227","geometry":{"type":"Point","coordinates":[6.9108652440000355,49.187404220000076]},"geometry_name":"the_geom","properties":{"OBJECTID_1":227,"OBJECTID":227,"EoICode":"FR22054","StationNam":"Station de FORBACH","Longitude":6.910865,"Latitude":49.187404,"Altitude":233,"StationTyp":"background","StationAre":"urban","avg15":13.107667,"year":9,"stat_name":"","pm25_avg":0,"stat__name":""}},{"type":"Feature","id":"pm25.228","geometry":{"type":"Point","coordinates":[-2.249857578999979,47.26410633200004]},"geometry_name":"the_geom","properties":{"OBJECTID_1":228,"OBJECTID":228,"EoICode":"FR23110","StationNam":"LEON BLUM","Longitude":-2.249858,"Latitude":47.264106,"Altitude":25,"StationTyp":"background","StationAre":"urban","avg15":9.532049,"year":9,"stat_name":"","pm25_avg":0,"stat__name":""}},{"type":"Feature","id":"pm25.229","geometry":{"type":"Point","coordinates":[-0.5560526699999286,47.46854066000003]},"geometry_name":"the_geom","properties":{"OBJECTID_1":229,"OBJECTID":229,"EoICode":"FR23120","StationNam":"BEAUX ARTS","Longitude":-0.556053,"Latitude":47.468541,"Altitude":47,"StationTyp":"background","StationAre":"urban","avg15":12.315558,"year":9,"stat_name":"","pm25_avg":0,"stat__name":""}},{"type":"Feature","id":"pm25.230","geometry":{"type":"Point","coordinates":[0.22142214100006186,47.971050379000076]},"geometry_name":"the_geom","properties":{"OBJECTID_1":230,"OBJECTID":230,"EoICode":"FR23182","StationNam":"SOURCES","Longitude":0.221422,"Latitude":47.97105,"Altitude":85,"StationTyp":"background","StationAre":"urban","avg15":13.002057,"year":9,"stat_name":"","pm25_avg":0,"stat__name":""}},{"type":"Feature","id":"pm25.231","geometry":{"type":"Point","coordinates":[-1.5375025419999702,47.222514286000035]},"geometry_name":"the_geom","properties":{"OBJECTID_1":231,"OBJECTID":231,"EoICode":"FR23188","StationNam":"CIM BOUTEILLERIE","Longitude":-1.537503,"Latitude":47.222514,"Altitude":18,"StationTyp":"background","StationAre":"urban","avg15":13.647651,"year":9,"stat_name":"","pm25_avg":0,"stat__name":""}},{"type":"Feature","id":"pm25.232","geometry":{"type":"Point","coordinates":[5.78583315000003,43.83530159000003]},"geometry_name":"the_geom","properties":{"OBJECTID_1":232,"OBJECTID":232,"EoICode":"FR24018","StationNam":"MANOSQUE","Longitude":5.785833,"Latitude":43.835302,"Altitude":371,"StationTyp":"background","StationAre":"urban","avg15":12.479338,"year":9,"stat_name":"","pm25_avg":0,"stat__name":""}},{"type":"Feature","id":"pm25.233","geometry":{"type":"Point","coordinates":[6.073060478000059,44.55522212900007]},"geometry_name":"the_geom","properties":{"OBJECTID_1":233,"OBJECTID":233,"EoICode":"FR24033","StationNam":"GAP COMMANDERIE","Longitude":6.07306,"Latitude":44.555222,"Altitude":741,"StationTyp":"background","StationAre":"urban","avg15":14.689587,"year":9,"stat_name":"","pm25_avg":0,"stat__name":""}},{"type":"Feature","id":"pm25.234","geometry":{"type":"Point","coordinates":[7.286262218000047,43.70205704500006]},"geometry_name":"the_geom","properties":{"OBJECTID_1":234,"OBJECTID":234,"EoICode":"FR24036","StationNam":"NICE ARSON","Longitude":7.286262,"Latitude":43.702057,"Altitude":9,"StationTyp":"background","StationAre":"urban","avg15":14.284461,"year":9,"stat_name":"","pm25_avg":0,"stat__name":""}},{"type":"Feature","id":"pm25.235","geometry":{"type":"Point","coordinates":[1.0936898760000417,49.44243772100003]},"geometry_name":"the_geom","properties":{"OBJECTID_1":235,"OBJECTID":235,"EoICode":"FR25036","StationNam":"Espace du Palais","Longitude":1.09369,"Latitude":49.442438,"Altitude":17,"StationTyp":"background","StationAre":"urban","avg15":13.04293,"year":9,"stat_name":"","pm25_avg":0,"stat__name":""}},{"type":"Feature","id":"pm25.236","geometry":{"type":"Point","coordinates":[5.066111927000065,47.30804130300004]},"geometry_name":"the_geom","properties":{"OBJECTID_1":236,"OBJECTID":236,"EoICode":"FR26005","StationNam":"Station PEJOCES","Longitude":5.066112,"Latitude":47.308041,"Altitude":255,"StationTyp":"background","StationAre":"urban","avg15":13.484743,"year":9,"stat_name":"","pm25_avg":0,"stat__name":""}},{"type":"Feature","id":"pm25.237","geometry":{"type":"Point","coordinates":[3.57639077500005,47.80056586100005]},"geometry_name":"the_geom","properties":{"OBJECTID_1":237,"OBJECTID":237,"EoICode":"FR26019","StationNam":"Station AUXERRE","Longitude":3.576391,"Latitude":47.800566,"Altitude":96,"StationTyp":"background","StationAre":"urban","avg15":11.705437,"year":9,"stat_name":"","pm25_avg":0,"stat__name":""}},{"type":"Feature","id":"pm25.238","geometry":{"type":"Point","coordinates":[2.63569297600003,50.53540448700005]},"geometry_name":"the_geom","properties":{"OBJECTID_1":238,"OBJECTID":238,"EoICode":"FR28028","StationNam":"Bethune Stade","Longitude":2.635693,"Latitude":50.535404,"Altitude":26,"StationTyp":"background","StationAre":"urban","avg15":14.057797,"year":9,"stat_name":"","pm25_avg":0,"stat__name":""}},{"type":"Feature","id":"pm25.239","geometry":{"type":"Point","coordinates":[4.395420753000053,45.42008813000007]},"geometry_name":"the_geom","properties":{"OBJECTID_1":239,"OBJECTID":239,"EoICode":"FR29424","StationNam":"SAINT ETIENNE SUD","Longitude":4.395421,"Latitude":45.420088,"Altitude":552,"StationTyp":"background","StationAre":"urban","avg15":8.417138,"year":9,"stat_name":"","pm25_avg":0,"stat__name":""}},{"type":"Feature","id":"pm25.240","geometry":{"type":"Point","coordinates":[4.515004483000041,45.47529558800005]},"geometry_name":"the_geom","properties":{"OBJECTID_1":240,"OBJECTID":240,"EoICode":"FR29426","StationNam":"SAINT-CHAMOND","Longitude":4.515004,"Latitude":45.475296,"Altitude":366,"StationTyp":"background","StationAre":"urban","avg15":13.46916,"year":9,"stat_name":"","pm25_avg":0,"stat__name":""}},{"type":"Feature","id":"pm25.241","geometry":{"type":"Point","coordinates":[6.190434353000057,48.688199334000046]},